{"name": "Luzern, Switzerland", "lon": "8.31", "id": "130395125", "image_url": "https://tse4.mm.bing.net/th?id=OIP.X9RqTEzVNsWDevy3Dvj-XQEgDY&pid=15.1&P=0&w=300&h=300", "belong_city": "lucerne", "lat": "47.05", "belong_city_id": "c311315", "_id": {"$oid": "5905e52e78b83736b0db6fb2"}, "slug": "luzern-switzerland"}
{"name": "Luzern Old Town", "lon": "8.3070152385546", "id": "218252046", "image_url": "https://tse4.mm.bing.net/th?id=OIP.r8GLEdubiu0HfIx6ymnO7gEsDI&pid=15.1&P=0&w=300&h=300", "belong_city": "lucerne", "lat": "47.051714929321", "belong_city_id": "c311315", "_id": {"$oid": "5905e52e78b83736b0db6fb3"}, "slug": "luzern-old-town"}
{"name": "Luzern Switzerland", "lon": "8.3068056235295", "id": "256393828", "image_url": "https://tse4.mm.bing.net/th?id=OIP.ZZYBR7W_zynCW8Mr5LOYMAEsDB&pid=15.1&P=0&w=300&h=300", "belong_city": "lucerne", "lat": "47.051665529832", "belong_city_id": "c311315", "_id": {"$oid": "5905e52e78b83736b0db6fb4"}, "slug": "luzern-switzerland"}
{"name": "Lake Luzern, Switzerland", "lon": "8.3067881630718", "id": "220148758", "image_url": "https://tse4.mm.bing.net/th?id=OIP.ExPwrDdwUp-cG8b0MHod9AEsDh&pid=15.1&P=0&w=300&h=300", "belong_city": "lucerne", "lat": "47.05165956554", "belong_city_id": "c311315", "_id": {"$oid": "5905e52e78b83736b0db6fb5"}, "slug": "lake-luzern-switzerland"}
{"name": "Kapellbrücke", "lon": "8.3075333333333", "id": "222822504", "image_url": "https://tse1.mm.bing.net/th?id=OIP.akoFtuOzsVEjlp32OpCLzAEsDI&pid=15.1&P=0&w=300&h=300", "belong_city": "lucerne", "lat": "47.051633333333", "belong_city_id": "c311315", "_id": {"$oid": "5905e52e78b83736b0db6fb6"}, "slug": "kapellbrucke"}
{"name": "Lake Lucerne Cruise, Switzerland", "lon": "8.3099062123179", "id": "238497939", "image_url": "https://tse2.mm.bing.net/th?id=OIP.Akr_msw4EqH3umeYsW9P0QEsDH&pid=15.1&P=0&w=300&h=300", "belong_city": "lucerne", "lat": "47.050504401131", "belong_city_id": "c311315", "_id": {"$oid": "5905e52e78b83736b0db6fb7"}, "slug": "lake-lucerne-cruise-switzerland"}
{"name": "Luzern, Switzerland", "lon": "8.3080930296123", "id": "286613572", "image_url": "https://tse4.mm.bing.net/th?id=OIP.X9RqTEzVNsWDevy3Dvj-XQEgDY&pid=15.1&P=0&w=300&h=300", "belong_city": "lucerne", "lat": "47.051278886661", "belong_city_id": "c311315", "_id": {"$oid": "5905e52e78b83736b0db6fb8"}, "slug": "luzern-switzerland"}
{"name": "Vierwaldstättersee / Lake Lucerne", "lon": "8.311150206916", "id": "216523584", "image_url": "https://s.yimg.com/kx/yucs/uh3s/promo-ff/1/images/ff_icon-compressed.png", "belong_city": "lucerne", "lat": "47.051316890719", "belong_city_id": "c311315", "_id": {"$oid": "5905e52e78b83736b0db6fb9"}, "slug": "vierwaldstattersee-lake-lucerne"}
{"name": "Stadt Luzern", "lon": "8.3045", "id": "213160630", "image_url": "https://tse2.mm.bing.net/th?id=OIP.VeFJLmaIopGyUmBZyrOwBwEsDH&pid=15.1&P=0&w=300&h=300", "belong_city": "lucerne", "lat": "47.04932", "belong_city_id": "c311315", "_id": {"$oid": "5905e52e78b83736b0db6fba"}, "slug": "stadt-luzern"}
{"name": "Verkehrshaus der Schweiz", "lon": "8.335819635548", "id": "301542", "image_url": "https://tse2.mm.bing.net/th?id=OIP.8kS3RVHLi1O6WlUEmAfJLgEsDh&pid=15.1&P=0&w=300&h=300", "belong_city": "lucerne", "lat": "47.0530747", "belong_city_id": "c311315", "_id": {"$oid": "5905e52e78b83736b0db6fbb"}, "slug": "verkehrshaus-der-schweiz"}
{"name": "Luzern City", "lon": "8.3125699", "id": "228477017", "image_url": "https://tse2.mm.bing.net/th?id=OIP.kCLwLIlUZNEinsVBDyEGUwEsDG&pid=15.1&P=0&w=300&h=300", "belong_city": "lucerne", "lat": "47.0426", "belong_city_id": "c311315", "_id": {"$oid": "5905e52e78b83736b0db6fbc"}, "slug": "luzern-city"}
{"name": "Luzerner Seepromenade", "lon": "8.3107362985405", "id": "217626667", "image_url": "https://tse1.mm.bing.net/th?id=OIP.qvB-bENra0c2771QRkyvhwEsDj&pid=15.1&P=0&w=300&h=300", "belong_city": "lucerne", "lat": "47.052700543391", "belong_city_id": "c311315", "_id": {"$oid": "5905e52e78b83736b0db6fbd"}, "slug": "luzerner-seepromenade"}
{"name": "Mount Pilatus, Luzern, Switzerland", "lon": "8.3023965730702", "id": "239612960", "image_url": "https://tse2.mm.bing.net/th?id=OIP.wuwtnKVp2v62mWify77fQAEsDh&pid=15.1&P=0&w=300&h=300", "belong_city": "lucerne", "lat": "47.050712822154", "belong_city_id": "c311315", "_id": {"$oid": "5905e52e78b83736b0db6fbe"}, "slug": "mount-pilatus-luzern-switzerland"}
{"name": "Chapel Bridge", "lon": "8.30744", "id": "16121080", "image_url": "https://tse2.mm.bing.net/th?id=OIP.iEx9ca-jt5PxR555mYIaowEsCX&pid=15.1&P=0&w=300&h=300", "belong_city": "lucerne", "lat": "47.0516", "belong_city_id": "c311315", "_id": {"$oid": "5905e52e78b83736b0db6fbf"}, "slug": "chapel-bridge"}
{"name": "Hotel Château Gütsch", "lon": "8.2951763910974", "id": "308893048", "image_url": "https://tse4.mm.bing.net/th?id=OIP.RNM8CQtbjK8g4rDIqS2ltgEsDh&pid=15.1&P=0&w=300&h=300", "belong_city": "lucerne", "lat": "47.051694293568", "belong_city_id": "c311315", "_id": {"$oid": "5905e52e78b83736b0db6fc0"}, "slug": "hotel-chateau-gutsch"}
{"name": "Jungfraujoch, Switzerland", "lon": "8.3091731120606", "id": "216723324", "image_url": "https://tse3.mm.bing.net/th?id=OIP.wfNQUHlaYGdwagd_eReL1wEsDh&pid=15.1&P=0&w=300&h=300", "belong_city": "lucerne", "lat": "47.049950222198", "belong_city_id": "c311315", "_id": {"$oid": "5905e52e78b83736b0db6fc1"}, "slug": "jungfraujoch-switzerland"}
{"name": "Hotel Schweizerhof Luzern", "lon": "8.3103827285431", "id": "256632", "image_url": "https://tse4.mm.bing.net/th?id=OIP.2xIcEo9iRCxOJDsGYQPuOwEsDH&pid=15.1&P=0&w=300&h=300", "belong_city": "lucerne", "lat": "47.054321045032", "belong_city_id": "c311315", "_id": {"$oid": "5905e52e78b83736b0db6fc2"}, "slug": "hotel-schweizerhof-luzern"}
{"name": "Löwendenkmal - Lion Monument In Lucerne, Switzerland", "lon": "8.31026", "id": "220024738", "image_url": "https://tse3.mm.bing.net/th?id=OIP.5DPCxhE0Rjz7p27WICybdgEsDI&pid=15.1&P=0&w=300&h=300", "belong_city": "lucerne", "lat": "47.05888", "belong_city_id": "c311315", "_id": {"$oid": "5905e52e78b83736b0db6fc3"}, "slug": "lowendenkmal-lion-monument-in-lucerne-switzerland"}
{"name": "Mt. Pilatus, Lucern, Switzerland", "lon": "8.3054998905553", "id": "240249501", "image_url": "https://tse4.mm.bing.net/th?id=OIP.wuwtnKVp2v62mWify77fQAEsDh&pid=15.1&P=0&w=300&h=300", "belong_city": "lucerne", "lat": "47.048177691653", "belong_city_id": "c311315", "_id": {"$oid": "5905e52e78b83736b0db6fc4"}, "slug": "mt-pilatus-lucern-switzerland"}
{"name": "Lion Monument", "lon": "8.3111111111111", "id": "327946439", "image_url": "https://tse1.mm.bing.net/th?id=OIP.CAdQ5-AhFw5Yz7RtvY90OQEsDD&pid=15.1&P=0&w=300&h=300", "belong_city": "lucerne", "lat": "47.058333333333", "belong_city_id": "c311315", "_id": {"$oid": "5905e52e78b83736b0db6fc5"}, "slug": "lion-monument"}
{"name": "Mt. Rigi- Swiss Alps", "lon": "8.3091784338462", "id": "240589593", "image_url": "https://tse1.mm.bing.net/th?id=OIP.WWvZqy0N-7-hiyeKHDQ0QQDIEs&pid=15.1&P=0&w=300&h=300", "belong_city": "lucerne", "lat": "47.049618229231", "belong_city_id": "c311315", "_id": {"$oid": "5905e52e78b83736b0db6fc6"}, "slug": "mt-rigi-swiss-alps"}
{"name": "KKL Luzern", "lon": "8.31214427948", "id": "213920373", "image_url": "https://tse3.mm.bing.net/th?id=OIP.sFCZuRMWnrgG4nG6mw2ewgEsDr&pid=15.1&P=0&w=300&h=300", "belong_city": "lucerne", "lat": "47.050417324372", "belong_city_id": "c311315", "_id": {"$oid": "5905e52e78b83736b0db6fc7"}, "slug": "kkl-luzern"}
{"name": "Mount Titlis, Switzerland", "lon": "8.311771921525", "id": "238088530", "image_url": "https://tse2.mm.bing.net/th?id=OIP.Pg8e_Hf_6c0IrXpcG_ILYwEsDI&pid=15.1&P=0&w=300&h=300", "belong_city": "lucerne", "lat": "47.056715377324", "belong_city_id": "c311315", "_id": {"$oid": "5905e52e78b83736b0db6fc8"}, "slug": "mount-titlis-switzerland"}
{"name": "Luzern City Switzerland", "lon": "8.30867", "id": "255063981", "image_url": "https://tse1.mm.bing.net/th?id=OIP.WJewMUy98OhlKT_5zbC96AEsDB&pid=15.1&P=0&w=300&h=300", "belong_city": "lucerne", "lat": "47.04679", "belong_city_id": "c311315", "_id": {"$oid": "5905e52e78b83736b0db6fc9"}, "slug": "luzern-city-switzerland"}
{"name": "Gletschergarten Luzern", "lon": "8.3105307123878", "id": "219945494", "image_url": "https://tse3.mm.bing.net/th?id=OIP.H-VgwH4rNsAfZZa9dOzxLQEsDh&pid=15.1&P=0&w=300&h=300", "belong_city": "lucerne", "lat": "47.058604400482", "belong_city_id": "c311315", "_id": {"$oid": "5905e52e78b83736b0db6fca"}, "slug": "gletschergarten-luzern"}
{"name": "Hotel PALACE LUZERN", "lon": "8.31963", "id": "30522474", "image_url": "https://tse3.mm.bing.net/th?id=OIP.On7cq4lNBiWaEG4Lw8j8VQEsDH&pid=15.1&P=0&w=300&h=300", "belong_city": "lucerne", "lat": "47.05529", "belong_city_id": "c311315", "_id": {"$oid": "5905e52e78b83736b0db6fcb"}, "slug": "hotel-palace-luzern"}
{"name": "Kapellbrücke", "lon": "8.3071032027239", "id": "980177", "image_url": "https://tse1.mm.bing.net/th?id=OIP.akoFtuOzsVEjlp32OpCLzAEsDI&pid=15.1&P=0&w=300&h=300", "belong_city": "lucerne", "lat": "47.051574205582", "belong_city_id": "c311315", "_id": {"$oid": "5905e52e78b83736b0db6fcc"}, "slug": "kapellbrucke"}
{"name": "Lion Monument", "lon": "8.3105991847057", "id": "229112883", "image_url": "https://tse1.mm.bing.net/th?id=OIP.CAdQ5-AhFw5Yz7RtvY90OQEsDD&pid=15.1&P=0&w=300&h=300", "belong_city": "lucerne", "lat": "47.057906357875", "belong_city_id": "c311315", "_id": {"$oid": "5905e52e78b83736b0db6fcd"}, "slug": "lion-monument"}
{"name": "Lucerne, Switerland", "lon": "8.30934944837", "id": "256720773", "image_url": "https://tse2.mm.bing.net/th?id=OIP.X9RqTEzVNsWDevy3Dvj-XQEsDh&pid=15.1&P=0&w=300&h=300", "belong_city": "lucerne", "lat": "47.0493519567", "belong_city_id": "c311315", "_id": {"$oid": "5905e52e78b83736b0db6fce"}, "slug": "lucerne-switerland"}
{"name": "Lucerne railway station", "lon": "8.3105555555556", "id": "221191024", "image_url": "https://tse2.mm.bing.net/th?id=OIP.zgCv5wwcwF_XeR8VBruQbAEsC7&pid=15.1&P=0&w=300&h=300", "belong_city": "lucerne", "lat": "47.048888888889", "belong_city_id": "c311315", "_id": {"$oid": "5905e52e78b83736b0db6fcf"}, "slug": "lucerne-railway-station"}
{"name": "Blue Balls Festival", "lon": "8.3119948062251", "id": "3992263", "image_url": "https://tse1.mm.bing.net/th?id=OIP.WONp1YaNuSoetumy69NZkQEsDI&pid=15.1&P=0&w=300&h=300", "belong_city": "lucerne", "lat": "47.051069092096", "belong_city_id": "c311315", "_id": {"$oid": "5905e52e78b83736b0db6fd0"}, "slug": "blue-balls-festival"}
{"name": "Altstadt Luzern", "lon": "8.3069287356378", "id": "24330", "image_url": "https://s.yimg.com/kx/yucs/uh3s/promo-ff/1/images/ff_icon-compressed.png", "belong_city": "lucerne", "lat": "47.053538616", "belong_city_id": "c311315", "_id": {"$oid": "5905e52e78b83736b0db6fd1"}, "slug": "altstadt-luzern"}
{"name": "Luzern See", "lon": "8.3351919672137", "id": "218232887", "image_url": "https://tse3.mm.bing.net/th?id=OIP.TtSMyGKiAryKnqGX9GUSoQEsDH&pid=15.1&P=0&w=300&h=300", "belong_city": "lucerne", "lat": "47.052699607713", "belong_city_id": "c311315", "_id": {"$oid": "5905e52e78b83736b0db6fd2"}, "slug": "luzern-see"}
{"name": "Hotel Astoria Luzern", "lon": "8.30543", "id": "524251", "image_url": "https://tse3.mm.bing.net/th?id=OIP.cCVX57YqQ6Foehu6YxlUiQEsCr&pid=15.1&P=0&w=300&h=300", "belong_city": "lucerne", "lat": "47.04815", "belong_city_id": "c311315", "_id": {"$oid": "5905e52e78b83736b0db6fd3"}, "slug": "hotel-astoria-luzern"}
{"name": "Grand Hotel National Luzern", "lon": "8.3152114947398", "id": "5719071", "image_url": "https://tse4.mm.bing.net/th?id=OIP.IkJXOKQ3-5SrnmO5562lrAEsB9&pid=15.1&P=0&w=300&h=300", "belong_city": "lucerne", "lat": "47.054755914019", "belong_city_id": "c311315", "_id": {"$oid": "5905e52e78b83736b0db6fd4"}, "slug": "grand-hotel-national-luzern"}
{"name": "Bahnhof Luzern", "lon": "8.3105555555556", "id": "23840", "image_url": "https://tse4.mm.bing.net/th?id=OIP.9MiO-O8BW1o9t-sWgHCd0wEsDh&pid=15.1&P=0&w=300&h=300", "belong_city": "lucerne", "lat": "47.048888888889", "belong_city_id": "c311315", "_id": {"$oid": "5905e52e78b83736b0db6fd5"}, "slug": "bahnhof-luzern"}
{"name": "Hotel Montana Luzern", "lon": "8.3196112739486", "id": "1502546", "image_url": "https://tse4.mm.bing.net/th?id=OIP.RJ6WKnaUS1TzuTa2JhBN4wEsDh&pid=15.1&P=0&w=300&h=300", "belong_city": "lucerne", "lat": "47.056308205392", "belong_city_id": "c311315", "_id": {"$oid": "5905e52e78b83736b0db6fd6"}, "slug": "hotel-montana-luzern"}
{"name": "Luzern Schweiz Kappelbrücke", "lon": "8.3079007217987", "id": "686048069", "image_url": "https://tse3.mm.bing.net/th?id=OIP.DXFK1jzluQjJZ8JB4M5pdwEsCN&pid=15.1&P=0&w=300&h=300", "belong_city": "lucerne", "lat": "47.052245793505", "belong_city_id": "c311315", "_id": {"$oid": "5905e52e78b83736b0db6fd7"}, "slug": "luzern-schweiz-kappelbrucke"}
{"name": "Löwendenkmal Luzern", "lon": "8.3105846639618", "id": "1974588", "image_url": "https://tse1.mm.bing.net/th?id=OIP.CDcdq_SLaSrkNvW3fZEh7QEsDH&pid=15.1&P=0&w=300&h=300", "belong_city": "lucerne", "lat": "47.057714970153", "belong_city_id": "c311315", "_id": {"$oid": "5905e52e78b83736b0db6fd8"}, "slug": "lowendenkmal-luzern"}
{"name": "Old Swiss House", "lon": "8.3106600574522", "id": "5723792", "image_url": "https://tse4.mm.bing.net/th?id=OIP._OGR1Pp7eUfoCvhANo6UVgEsDh&pid=15.1&P=0&w=300&h=300", "belong_city": "lucerne", "lat": "47.056882901112", "belong_city_id": "c311315", "_id": {"$oid": "5905e52e78b83736b0db6fd9"}, "slug": "old-swiss-house"}
{"name": "Lucerna, Suiza", "lon": "8.305597709169", "id": "255085459", "image_url": "https://tse2.mm.bing.net/th?id=OIP.48FkGKqdl9IL7g7QEpWEYAEsDh&pid=15.1&P=0&w=300&h=300", "belong_city": "lucerne", "lat": "47.048116042906", "belong_city_id": "c311315", "_id": {"$oid": "5905e52e78b83736b0db6fda"}, "slug": "lucerna-suiza"}
{"name": "Lucerne Culture and Congress Centre", "lon": "8.312122", "id": "257113561", "image_url": "https://tse4.mm.bing.net/th?id=OIP.HzyIT5envZN-ux2LtetUfQEsDQ&pid=15.1&P=0&w=300&h=300", "belong_city": "lucerne", "lat": "47.0506", "belong_city_id": "c311315", "_id": {"$oid": "5905e52e78b83736b0db6fdb"}, "slug": "lucerne-culture-and-congress-centre"}
{"name": "Konzerthaus Schüür", "lon": "8.31125", "id": "6081130", "image_url": "https://tse2.mm.bing.net/th?id=OIP.ktnVhv8RpOkaKJJ-WKR77wEsDG&pid=15.1&P=0&w=300&h=300", "belong_city": "lucerne", "lat": "47.04458", "belong_city_id": "c311315", "_id": {"$oid": "5905e52e78b83736b0db6fdc"}, "slug": "konzerthaus-schuur"}
{"name": "Chapel Bridge Lucerne, Switzerland", "lon": "8.3093259228571", "id": "1027790378", "image_url": "https://tse4.mm.bing.net/th?id=OIP.O8nf80qZq3OSLIuJix1Q6AEsDH&pid=15.1&P=0&w=300&h=300", "belong_city": "lucerne", "lat": "47.048896188571", "belong_city_id": "c311315", "_id": {"$oid": "5905e52e78b83736b0db6fdd"}, "slug": "chapel-bridge-lucerne-switzerland"}
{"name": "Luzern Engelberg Titlis , Switzerland", "lon": "8.3054784740854", "id": "242366951", "image_url": "https://tse1.mm.bing.net/th?id=OIP.JRgWcq7ROWKfhBsHd1RgrQEsDG&pid=15.1&P=0&w=300&h=300", "belong_city": "lucerne", "lat": "47.048209934188", "belong_city_id": "c311315", "_id": {"$oid": "5905e52e78b83736b0db6fde"}, "slug": "luzern-engelberg-titlis-switzerland"}
{"name": "Museggmauer", "lon": "8.30145", "id": "259078989", "image_url": "https://tse3.mm.bing.net/th?id=OIP.tggHJmUuH--GdRB2xw_ilwEsDh&pid=15.1&P=0&w=300&h=300", "belong_city": "lucerne", "lat": "47.05346", "belong_city_id": "c311315", "_id": {"$oid": "5905e52e78b83736b0db6fdf"}, "slug": "museggmauer"}
{"name": "Lounge Bar Suite", "lon": "8.30897", "id": "4196050", "image_url": "https://tse2.mm.bing.net/th?id=OIP.uO2ZLCUGNSLhqsACRzkQkwEsDg&pid=15.1&P=0&w=300&h=300", "belong_city": "lucerne", "lat": "47.04976", "belong_city_id": "c311315", "_id": {"$oid": "5905e52e78b83736b0db6fe0"}, "slug": "lounge-bar-suite"}
{"name": "Church of St. Leodegar", "lon": "8.3140527777778", "id": "249915883", "image_url": "https://tse4.mm.bing.net/th?id=OIP.L7egohXCZCs64vLPjI96QADhEs&pid=15.1&P=0&w=300&h=300", "belong_city": "lucerne", "lat": "47.055655555556", "belong_city_id": "c311315", "_id": {"$oid": "5905e52e78b83736b0db6fe1"}, "slug": "church-of-st-leodegar"}
{"name": "On the Rhine River, Basel, Switzerland", "lon": "7.5903481492673", "id": "261727296", "image_url": "https://tse2.mm.bing.net/th?id=OIP.J0LxqvylZO7F6_rv5nAmLQEsDh&pid=15.1&P=0&w=300&h=300", "belong_city": "klein-basel", "lat": "47.560317730767", "belong_city_id": "c310986", "_id": {"$oid": "5905e52e78b83736b0db6fe2"}, "slug": "on-the-rhine-river-basel-switzerland"}
{"name": "Basel Altstadt", "lon": "7.5824303518589", "id": "380347142", "image_url": "https://s.yimg.com/kx/yucs/uh3s/promo-ff/1/images/ff_icon-compressed.png", "belong_city": "klein-basel", "lat": "47.55696749563", "belong_city_id": "c310986", "_id": {"$oid": "5905e52e78b83736b0db6fe3"}, "slug": "basel-altstadt"}
{"name": "Basler Weihnachtsmarkt", "lon": "7.5902057411812", "id": "276709687", "image_url": "https://tse2.mm.bing.net/th?id=OIP.YEGVh7DzhAeKLs8t_jaGxQEsDH&pid=15.1&P=0&w=300&h=300", "belong_city": "klein-basel", "lat": "47.554523608159", "belong_city_id": "c310986", "_id": {"$oid": "5905e52e78b83736b0db6fe4"}, "slug": "basler-weihnachtsmarkt"}
{"name": "Zoo Basel", "lon": "7.5827031", "id": "69260", "image_url": "https://tse4.mm.bing.net/th?id=OIP.U6MA5eczTZWjkOH9wxIscQEsDS&pid=15.1&P=0&w=300&h=300", "belong_city": "klein-basel", "lat": "47.5488017", "belong_city_id": "c310986", "_id": {"$oid": "5905e52e78b83736b0db6fe5"}, "slug": "zoo-basel"}
{"name": "VOLTA Art Fair", "lon": "7.5870037078857", "id": "226677847", "image_url": "https://tse1.mm.bing.net/th?id=OIP.b0xx7oxiWAH9g7hblp5A5QEaEs&pid=15.1&P=0&w=300&h=300", "belong_city": "klein-basel", "lat": "47.549015134749", "belong_city_id": "c310986", "_id": {"$oid": "5905e52e78b83736b0db6fe6"}, "slug": "volta-art-fair"}
{"name": "Basel, Switserland.", "lon": "7.5841404186445", "id": "298138923", "image_url": "https://tse3.mm.bing.net/th?id=OIP.6mjoiWzn7hZj16JS6ta8zwEsDK&pid=15.1&P=0&w=300&h=300", "belong_city": "klein-basel", "lat": "47.568839755832", "belong_city_id": "c310986", "_id": {"$oid": "5905e52e78b83736b0db6fe7"}, "slug": "basel-switserland"}
{"name": "Barfüsserplatz", "lon": "7.5893750501824", "id": "706242", "image_url": "https://tse4.mm.bing.net/th?id=OIP.M0EbcNCzeQfjmgT7ykSiuAEsDI&pid=15.1&P=0&w=300&h=300", "belong_city": "klein-basel", "lat": "47.554482102521", "belong_city_id": "c310986", "_id": {"$oid": "5905e52e78b83736b0db6fe8"}, "slug": "barfusserplatz"}
{"name": "Art Basel", "lon": "7.589281", "id": "868852393", "image_url": "https://tse4.mm.bing.net/th?id=OIP.OBY_BTNLFQ9YQ39Vb38CdAEsDI&pid=15.1&P=0&w=300&h=300", "belong_city": "klein-basel", "lat": "47.554267", "belong_city_id": "c310986", "_id": {"$oid": "5905e52e78b83736b0db6fe9"}, "slug": "art-basel"}
{"name": "Münsterplatz", "lon": "7.5916379868332", "id": "4255649", "image_url": "https://tse1.mm.bing.net/th?id=OIP.h5pS0N4HQQcu0yaCmx4QHgEsDl&pid=15.1&P=0&w=300&h=300", "belong_city": "klein-basel", "lat": "47.556643758463", "belong_city_id": "c310986", "_id": {"$oid": "5905e52e78b83736b0db6fea"}, "slug": "munsterplatz"}
{"name": "Basler Fasnacht", "lon": "7.58818", "id": "1019410941", "image_url": "https://tse1.mm.bing.net/th?id=OIP.0csgihdx0Bcjm4u_qi1XaADhEs&pid=15.1&P=0&w=300&h=300", "belong_city": "klein-basel", "lat": "47.5598699", "belong_city_id": "c310986", "_id": {"$oid": "5905e52e78b83736b0db6feb"}, "slug": "basler-fasnacht"}
{"name": "Marktplatz Rathaus", "lon": "7.58816", "id": "286989279", "image_url": "https://tse1.mm.bing.net/th?id=OIP.mgUif65ub_DrEPa2c4cCFgEsDH&pid=15.1&P=0&w=300&h=300", "belong_city": "klein-basel", "lat": "47.55814", "belong_city_id": "c310986", "_id": {"$oid": "5905e52e78b83736b0db6fec"}, "slug": "marktplatz-rathaus"}
{"name": "Basler Herbstmesse - Petersplatz", "lon": "7.5844", "id": "684644334", "image_url": "https://tse3.mm.bing.net/th?id=OIP.ZPesCNho1EkmdgZB0nzqCAEsDI&pid=15.1&P=0&w=300&h=300", "belong_city": "klein-basel", "lat": "47.5591", "belong_city_id": "c310986", "_id": {"$oid": "5905e52e78b83736b0db6fed"}, "slug": "basler-herbstmesse-petersplatz"}
{"name": "Münsterplatz Kirche Basel", "lon": "7.59083", "id": "224156354", "image_url": "https://tse3.mm.bing.net/th?id=OIP.1gB_Rp-1C48TItQBGp4DvgEsDH&pid=15.1&P=0&w=300&h=300", "belong_city": "klein-basel", "lat": "47.55673", "belong_city_id": "c310986", "_id": {"$oid": "5905e52e78b83736b0db6fee"}, "slug": "munsterplatz-kirche-basel"}
{"name": "Marktplatz", "lon": "7.58807", "id": "214981626", "image_url": "https://tse4.mm.bing.net/th?id=OIP.FHY0HfRLFHK_8zIMkgTUTwEsCe&pid=15.1&P=0&w=300&h=300", "belong_city": "klein-basel", "lat": "47.55807", "belong_city_id": "c310986", "_id": {"$oid": "5905e52e78b83736b0db6fef"}, "slug": "marktplatz"}
{"name": "La Diva Basel", "lon": "7.5871442132312", "id": "427138892", "image_url": "https://tse3.mm.bing.net/th?id=OIP.gn5Hu5qCowcPyIn2giI5xgEsCo&pid=15.1&P=0&w=300&h=300", "belong_city": "klein-basel", "lat": "47.557001417473", "belong_city_id": "c310986", "_id": {"$oid": "5905e52e78b83736b0db6ff0"}, "slug": "la-diva-basel"}
{"name": "Mittlere Brücke", "lon": "7.5897222222222", "id": "337404851", "image_url": "https://tse1.mm.bing.net/th?id=OIP.wLJO-E-sHvkl4iQ-pERNtAEsDh&pid=15.1&P=0&w=300&h=300", "belong_city": "klein-basel", "lat": "47.56", "belong_city_id": "c310986", "_id": {"$oid": "5905e52e78b83736b0db6ff1"}, "slug": "mittlere-brucke"}
{"name": "Theater Basel", "lon": "7.59005904689", "id": "69050", "image_url": "https://tse3.mm.bing.net/th?id=OIP.kqZziCNvCS-RKtBnOJtgGAEsC7&pid=15.1&P=0&w=300&h=300", "belong_city": "klein-basel", "lat": "47.553031967424", "belong_city_id": "c310986", "_id": {"$oid": "5905e52e78b83736b0db6ff2"}, "slug": "theater-basel"}
{"name": "Novartis Campus", "lon": "7.5792044988827", "id": "1905484", "image_url": "https://tse2.mm.bing.net/th?id=OIP.dsBXEQKqWzSgVssBi7itrQEsDg&pid=15.1&P=0&w=300&h=300", "belong_city": "klein-basel", "lat": "47.573255453337", "belong_city_id": "c310986", "_id": {"$oid": "5905e52e78b83736b0db6ff3"}, "slug": "novartis-campus"}
{"name": "Spielzeug Welten Museum Basel", "lon": "7.5890422491769", "id": "79031105", "image_url": "https://tse4.mm.bing.net/th?id=OIP.7oOH9PHoTQAoG7kllnh4uwEsCX&pid=15.1&P=0&w=300&h=300", "belong_city": "klein-basel", "lat": "47.554088905431", "belong_city_id": "c310986", "_id": {"$oid": "5905e52e78b83736b0db6ff4"}, "slug": "spielzeug-welten-museum-basel"}
{"name": "Rhein River", "lon": "7.5895804722584", "id": "237954383", "image_url": "https://s.yimg.com/kx/yucs/uh3s/promo-ff/1/images/ff_icon-compressed.png", "belong_city": "klein-basel", "lat": "47.560288815067", "belong_city_id": "c310986", "_id": {"$oid": "5905e52e78b83736b0db6ff5"}, "slug": "rhein-river"}
{"name": "Basel Town Hall", "lon": "7.58833", "id": "361551426", "image_url": "https://tse3.mm.bing.net/th?id=OIP.SP9M84i2NoNgFquhtl-RagDgEs&pid=15.1&P=0&w=300&h=300", "belong_city": "klein-basel", "lat": "47.5583", "belong_city_id": "c310986", "_id": {"$oid": "5905e52e78b83736b0db6ff6"}, "slug": "basel-town-hall"}
{"name": "Basel Rhein", "lon": "7.585973739624", "id": "225809867", "image_url": "https://tse3.mm.bing.net/th?id=OIP.0v6OZqjMmrAF_YE24a0XbgEsDH&pid=15.1&P=0&w=300&h=300", "belong_city": "klein-basel", "lat": "47.567275083989", "belong_city_id": "c310986", "_id": {"$oid": "5905e52e78b83736b0db6ff7"}, "slug": "basel-rhein"}
{"name": "Am Rhy", "lon": "7.5901733483758", "id": "234746613", "image_url": "https://tse1.mm.bing.net/th?id=OIP.teTndby_5TnLNnciyQFhiwEsCK&pid=15.1&P=0&w=300&h=300", "belong_city": "klein-basel", "lat": "47.560885371211", "belong_city_id": "c310986", "_id": {"$oid": "5905e52e78b83736b0db6ff8"}, "slug": "am-rhy"}
{"name": "Kunsthalle Basel", "lon": "7.5909151084332", "id": "2965695", "image_url": "https://tse2.mm.bing.net/th?id=OIP.gKE-tBqIcE_hI-rNgnYu2AEsDZ&pid=15.1&P=0&w=300&h=300", "belong_city": "klein-basel", "lat": "47.553576578837", "belong_city_id": "c310986", "_id": {"$oid": "5905e52e78b83736b0db6ff9"}, "slug": "kunsthalle-basel"}
{"name": "Grand Hotel Les Trois Rois", "lon": "7.58767", "id": "234746611", "image_url": "https://tse3.mm.bing.net/th?id=OIP.asoaq4fkYUSIs7alnHX25AEsDI&pid=15.1&P=0&w=300&h=300", "belong_city": "klein-basel", "lat": "47.56044", "belong_city_id": "c310986", "_id": {"$oid": "5905e52e78b83736b0db6ffa"}, "slug": "grand-hotel-les-trois-rois"}
{"name": "Markthalle Basel", "lon": "7.58726", "id": "259642890", "image_url": "https://tse3.mm.bing.net/th?id=OIP.WNGKFJA76RAPgYLi1Y34ewEsDI&pid=15.1&P=0&w=300&h=300", "belong_city": "klein-basel", "lat": "47.54895", "belong_city_id": "c310986", "_id": {"$oid": "5905e52e78b83736b0db6ffb"}, "slug": "markthalle-basel"}
{"name": "Tinguely Brunnen", "lon": "7.5905", "id": "289908", "image_url": "https://tse2.mm.bing.net/th?id=OIP.fb7dz3jqRIt0_gJuWjAakwDhEs&pid=15.1&P=0&w=300&h=300", "belong_city": "klein-basel", "lat": "47.55395", "belong_city_id": "c310986", "_id": {"$oid": "5905e52e78b83736b0db6ffc"}, "slug": "tinguely-brunnen"}
{"name": "Hotel Les Trois Rois", "lon": "7.5876722222222", "id": "1021061623", "image_url": "https://tse1.mm.bing.net/th?id=OIP.7OCp7fylS7uPPXnsQI1IEgDdEs&pid=15.1&P=0&w=300&h=300", "belong_city": "klein-basel", "lat": "47.560438888889", "belong_city_id": "c310986", "_id": {"$oid": "5905e52e78b83736b0db6ffd"}, "slug": "hotel-les-trois-rois"}
{"name": "Kannenfeldpark", "lon": "7.5705568372737", "id": "5137165", "image_url": "https://s.yimg.com/kx/yucs/uh3s/promo-ff/1/images/ff_icon-compressed.png", "belong_city": "klein-basel", "lat": "47.56543967", "belong_city_id": "c310986", "_id": {"$oid": "5905e52e78b83736b0db6ffe"}, "slug": "kannenfeldpark"}
{"name": "Elisabethenkirche, Basel", "lon": "7.59111", "id": "217096225", "image_url": "https://tse4.mm.bing.net/th?id=OIP.Mrj1wgRE7Sp_F218Esr8VADhEs&pid=15.1&P=0&w=300&h=300", "belong_city": "klein-basel", "lat": "47.5528", "belong_city_id": "c310986", "_id": {"$oid": "5905e52e78b83736b0db6fff"}, "slug": "elisabethenkirche-basel"}
{"name": "Rathaus Basel", "lon": "7.58816", "id": "445312", "image_url": "https://tse2.mm.bing.net/th?id=OIP.Li8P2oJe5s97MO4ZAEY5cgEsEs&pid=15.1&P=0&w=300&h=300", "belong_city": "klein-basel", "lat": "47.55814", "belong_city_id": "c310986", "_id": {"$oid": "5905e52e78b83736b0db7000"}, "slug": "rathaus-basel"}
{"name": "Universität Basel", "lon": "7.5838699", "id": "2001589", "image_url": "https://s.yimg.com/kx/yucs/uh3s/promo-ff/1/images/ff_icon-compressed.png", "belong_city": "klein-basel", "lat": "47.5585289", "belong_city_id": "c310986", "_id": {"$oid": "5905e52e78b83736b0db7001"}, "slug": "universitat-basel"}
{"name": "Hotel Les Trois Rois", "lon": "7.5876722222222", "id": "1768699", "image_url": "https://tse1.mm.bing.net/th?id=OIP.7OCp7fylS7uPPXnsQI1IEgDdEs&pid=15.1&P=0&w=300&h=300", "belong_city": "klein-basel", "lat": "47.560438888889", "belong_city_id": "c310986", "_id": {"$oid": "5905e52e78b83736b0db7002"}, "slug": "hotel-les-trois-rois"}
{"name": "Schützenmattpark", "lon": "7.5755331053469", "id": "884228", "image_url": "https://s.yimg.com/kx/yucs/uh3s/promo-ff/1/images/ff_icon-compressed.png", "belong_city": "klein-basel", "lat": "47.552528246928", "belong_city_id": "c310986", "_id": {"$oid": "5905e52e78b83736b0db7003"}, "slug": "schutzenmattpark"}
{"name": "Basel am Rhy", "lon": "7.5901102763344", "id": "254803421", "image_url": "https://tse3.mm.bing.net/th?id=OIP.-xQFtymP-uuMbhSUYfQPZQEsBb&pid=15.1&P=0&w=300&h=300", "belong_city": "klein-basel", "lat": "47.561160573999", "belong_city_id": "c310986", "_id": {"$oid": "5905e52e78b83736b0db7004"}, "slug": "basel-am-rhy"}
{"name": "Naturhistorisches Museum Basel", "lon": "7.5903717929706", "id": "276664602", "image_url": "https://tse3.mm.bing.net/th?id=OIP.j4gx3hpu7coUsyw45IvWbADhEs&pid=15.1&P=0&w=300&h=300", "belong_city": "klein-basel", "lat": "47.557654952837", "belong_city_id": "c310986", "_id": {"$oid": "5905e52e78b83736b0db7005"}, "slug": "naturhistorisches-museum-basel"}
{"name": "Botanischer Garten Basel", "lon": "7.5811071", "id": "279179493", "image_url": "https://tse2.mm.bing.net/th?id=OIP.XNuawjdfOugiDGUVIDEuDAEsDI&pid=15.1&P=0&w=300&h=300", "belong_city": "klein-basel", "lat": "47.5586085", "belong_city_id": "c310986", "_id": {"$oid": "5905e52e78b83736b0db7006"}, "slug": "botanischer-garten-basel"}
{"name": "Pathé Küchlin", "lon": "7.5886012916567", "id": "1190347", "image_url": "https://tse3.mm.bing.net/th?id=OIP.RkZ3LXTEvj5Z-6bpbAQaXgEsDI&pid=15.1&P=0&w=300&h=300", "belong_city": "klein-basel", "lat": "47.552381015764", "belong_city_id": "c310986", "_id": {"$oid": "5905e52e78b83736b0db7007"}, "slug": "pathe-kuchlin"}
{"name": "Universitätsspital Basel", "lon": "7.5838920943178", "id": "234904512", "image_url": "https://tse3.mm.bing.net/th?id=OIP.K7c6cPQ5rRHESvfEOEJJ6AEsDH&pid=15.1&P=0&w=300&h=300", "belong_city": "klein-basel", "lat": "47.561591915626", "belong_city_id": "c310986", "_id": {"$oid": "5905e52e78b83736b0db7008"}, "slug": "universitatsspital-basel"}
{"name": "Klein-Basel, Basel-Stadt, Switzerland", "lon": "7.58333", "id": "229117742", "image_url": "https://tse1.mm.bing.net/th?id=OIP.uauX0Pz8QAQB-giyTuwO3wEsDI&pid=15.1&P=0&w=300&h=300", "belong_city": "klein-basel", "lat": "47.5667", "belong_city_id": "c310986", "_id": {"$oid": "5905e52e78b83736b0db7009"}, "slug": "klein-basel-basel-stadt-switzerland"}
{"name": "Zolli - Zoo Basel", "lon": "7.5819887083746", "id": "249165712", "image_url": "https://tse3.mm.bing.net/th?id=OIP.9WlzljydSImOigz0KL6ZvQEsDh&pid=15.1&P=0&w=300&h=300", "belong_city": "klein-basel", "lat": "47.548830482323", "belong_city_id": "c310986", "_id": {"$oid": "5905e52e78b83736b0db700a"}, "slug": "zolli-zoo-basel"}
{"name": "Hotel Krafft Basel", "lon": "7.5916502020236", "id": "1861323", "image_url": "https://tse4.mm.bing.net/th?id=OIP.LGx6XFmjbBWeZEhJuGzFIgEsCo&pid=15.1&P=0&w=300&h=300", "belong_city": "klein-basel", "lat": "47.560130721315", "belong_city_id": "c310986", "_id": {"$oid": "5905e52e78b83736b0db700b"}, "slug": "hotel-krafft-basel"}
{"name": "Papa Joes", "lon": "7.58936", "id": "218465539", "image_url": "https://tse1.mm.bing.net/th?id=OIP.ZHwphp0cOT5aZqsr1VexdAEsDk&pid=15.1&P=0&w=300&h=300", "belong_city": "klein-basel", "lat": "47.55425", "belong_city_id": "c310986", "_id": {"$oid": "5905e52e78b83736b0db700c"}, "slug": "papa-joes"}
{"name": "unternehmen mitte", "lon": "7.5884177817218", "id": "747832", "image_url": "https://tse4.mm.bing.net/th?id=OIP.2dovkAcBu0A3j77cD_I7-AEsDH&pid=15.1&P=0&w=300&h=300", "belong_city": "klein-basel", "lat": "47.556601174709", "belong_city_id": "c310986", "_id": {"$oid": "5905e52e78b83736b0db700d"}, "slug": "unternehmen-mitte"}
{"name": "Balz", "lon": "7.58757", "id": "401392229", "image_url": "https://tse4.mm.bing.net/th?id=OIP.z9UamDM7qemW-70GWO-hUAEsDH&pid=15.1&P=0&w=300&h=300", "belong_city": "klein-basel", "lat": "47.55236", "belong_city_id": "c310986", "_id": {"$oid": "5905e52e78b83736b0db700e"}, "slug": "balz"}
{"name": "Kaserne Basel *Musik*", "lon": "7.5907796114663", "id": "237488356", "image_url": "https://tse3.mm.bing.net/th?id=OIP.Usfc0R0Q2K8ydjUSKs7j7wEsCz&pid=15.1&P=0&w=300&h=300", "belong_city": "klein-basel", "lat": "47.563488701208", "belong_city_id": "c310986", "_id": {"$oid": "5905e52e78b83736b0db700f"}, "slug": "kaserne-basel-musik"}
{"name": "baltazar", "lon": "7.58760882643", "id": "234793373", "image_url": "https://tse2.mm.bing.net/th?id=OIP.-7_4kiFMd1jgh0FwzgLsKwDmC0&pid=15.1&P=0&w=300&h=300", "belong_city": "klein-basel", "lat": "47.552313360541", "belong_city_id": "c310986", "_id": {"$oid": "5905e52e78b83736b0db7010"}, "slug": "baltazar"}
{"name": "St. Johannspark", "lon": "7.5825612691622", "id": "2276891", "image_url": "https://tse1.mm.bing.net/th?id=OIP.4446YGp0tlFUAXnqWTEDhwEsDH&pid=15.1&P=0&w=300&h=300", "belong_city": "klein-basel", "lat": "47.567626015616", "belong_city_id": "c310986", "_id": {"$oid": "5905e52e78b83736b0db7011"}, "slug": "st-johannspark"}
{"name": "Mandarin Oriental, Geneva", "lon": "6.1409053549125", "id": "1340317", "image_url": "https://s.yimg.com/kx/yucs/uh3s/promo-ff/1/images/ff_icon-compressed.png", "belong_city": "coulouvrenière", "lat": "46.205641051251", "belong_city_id": "c310168", "_id": {"$oid": "5905e52e78b83736b0db7012"}, "slug": "mandarin-oriental-geneva"}
{"name": "Plainpalais", "lon": "6.1387", "id": "234381096", "image_url": "https://tse3.mm.bing.net/th?id=OIP.OAH_mxhLP2bedwL2xz7TcgEsEs&pid=15.1&P=0&w=300&h=300", "belong_city": "coulouvrenière", "lat": "46.1927", "belong_city_id": "c310168", "_id": {"$oid": "5905e52e78b83736b0db7013"}, "slug": "plainpalais"}
{"name": "Plaine de Plainpalais", "lon": "6.1404", "id": "213188361", "image_url": "https://s.yimg.com/kx/yucs/uh3s/promo-ff/1/images/ff_icon-compressed.png", "belong_city": "coulouvrenière", "lat": "46.198", "belong_city_id": "c310168", "_id": {"$oid": "5905e52e78b83736b0db7014"}, "slug": "plaine-de-plainpalais"}
{"name": "Victoria-Hall", "lon": "6.1411371324474", "id": "393938", "image_url": "https://tse2.mm.bing.net/th?id=OIP.pV44TEhgncK8OxvyRqoXSAEsDI&pid=15.1&P=0&w=300&h=300", "belong_city": "coulouvrenière", "lat": "46.201470437934", "belong_city_id": "c310168", "_id": {"$oid": "5905e52e78b83736b0db7015"}, "slug": "victoria-hall"}
{"name": "Université de Genève - Uni Mail", "lon": "6.14035", "id": "216580688", "image_url": "https://tse2.mm.bing.net/th?id=OIP.PXIoQrH2qaJVkA8cudFFHwEsDI&pid=15.1&P=0&w=300&h=300", "belong_city": "coulouvrenière", "lat": "46.19471", "belong_city_id": "c310168", "_id": {"$oid": "5905e52e78b83736b0db7016"}, "slug": "universite-de-geneve-uni-mail"}
{"name": "Mamco", "lon": "6.1376340037225", "id": "226409669", "image_url": "https://tse3.mm.bing.net/th?id=OIP.VfTieS6dFcEB8CN0bSl8FAEsDh&pid=15.1&P=0&w=300&h=300", "belong_city": "coulouvrenière", "lat": "46.199098458197", "belong_city_id": "c310168", "_id": {"$oid": "5905e52e78b83736b0db7017"}, "slug": "mamco"}
{"name": "Geneva City, Switzerland", "lon": "6.1327814836779", "id": "214928589", "image_url": "https://tse2.mm.bing.net/th?id=OIP.SfWvzpbn3gBk1-cop3Y5gQEsDh&pid=15.1&P=0&w=300&h=300", "belong_city": "coulouvrenière", "lat": "46.2087342547", "belong_city_id": "c310168", "_id": {"$oid": "5905e52e78b83736b0db7018"}, "slug": "geneva-city-switzerland"}
{"name": "Bâtiment Des Forces Motrices", "lon": "6.13658", "id": "246555332", "image_url": "https://tse4.mm.bing.net/th?id=OIP.lRjbVC9_JwYqnXdQZn9h7AEsDI&pid=15.1&P=0&w=300&h=300", "belong_city": "coulouvrenière", "lat": "46.20431", "belong_city_id": "c310168", "_id": {"$oid": "5905e52e78b83736b0db7019"}, "slug": "batiment-des-forces-motrices"}
{"name": "Patinoire des Vernets - GSHC", "lon": "6.1334060450481", "id": "393184", "image_url": "https://tse2.mm.bing.net/th?id=OIP.uuXRc-N3P71n7g1kwlEyyQEsDH&pid=15.1&P=0&w=300&h=300", "belong_city": "coulouvrenière", "lat": "46.194278564735", "belong_city_id": "c310168", "_id": {"$oid": "5905e52e78b83736b0db701a"}, "slug": "patinoire-des-vernets-gshc"}
{"name": "Bypass Geneva", "lon": "6.12796", "id": "222929149", "image_url": "https://tse1.mm.bing.net/th?id=OIP.14RpyvfrEFCRaIs6IAjAOAEsDI&pid=15.1&P=0&w=300&h=300", "belong_city": "coulouvrenière", "lat": "46.18752", "belong_city_id": "c310168", "_id": {"$oid": "5905e52e78b83736b0db701b"}, "slug": "bypass-geneva"}
{"name": "FanZone Euro2016 Plainpalais", "lon": "6.13926", "id": "496679533859412", "image_url": "https://tse2.mm.bing.net/th?id=OIP.Qi7mKNmT6-CMuCLPCNC9tgEsDH&pid=15.1&P=0&w=300&h=300", "belong_city": "coulouvrenière", "lat": "46.19779", "belong_city_id": "c310168", "_id": {"$oid": "5905e52e78b83736b0db701c"}, "slug": "fanzone-euro2016-plainpalais"}
{"name": "United Nations, Geneva, Switzerland.", "lon": "6.14011997804", "id": "274956981", "image_url": "https://tse1.mm.bing.net/th?id=OIP.sVVJI7w5-TqhrYjv5OyxMQEsDh&pid=15.1&P=0&w=300&h=300", "belong_city": "coulouvrenière", "lat": "46.2059899854", "belong_city_id": "c310168", "_id": {"$oid": "5905e52e78b83736b0db701d"}, "slug": "united-nations-geneva-switzerland"}
{"name": "La Jonction", "lon": "6.13036", "id": "858515363", "image_url": "https://tse4.mm.bing.net/th?id=OIP.R6FuxSUtdDS0DgGKpcF61gEsDI&pid=15.1&P=0&w=300&h=300", "belong_city": "coulouvrenière", "lat": "46.2012", "belong_city_id": "c310168", "_id": {"$oid": "5905e52e78b83736b0db701e"}, "slug": "la-jonction"}
{"name": "Le Zoo / Usine (Officiel)", "lon": "6.136353679848", "id": "220189423", "image_url": "https://tse3.mm.bing.net/th?id=OIP.jd3HSPK3N6QeLEQ19qbiagDUEs&pid=15.1&P=0&w=300&h=300", "belong_city": "coulouvrenière", "lat": "46.203977136528", "belong_city_id": "c310168", "_id": {"$oid": "5905e52e78b83736b0db701f"}, "slug": "le-zoo-usine-officiel"}
{"name": "درياچه خليج فارس", "lon": "6.1354742", "id": "371504043", "image_url": "https://tse1.mm.bing.net/th?id=OIP.z3RffQBGFLDyL5oElb61mAEsDI&pid=15.1&P=0&w=300&h=300", "belong_city": "coulouvrenière", "lat": "46.20888885", "belong_city_id": "c310168", "_id": {"$oid": "5905e52e78b83736b0db7020"}, "slug": ""}
{"name": "Geneve Centre", "lon": "6.1398159349114", "id": "235700325", "image_url": "https://tse4.mm.bing.net/th?id=OIP.sHymBeA3i_pp5GfGLQWDcQEsDH&pid=15.1&P=0&w=300&h=300", "belong_city": "coulouvrenière", "lat": "46.200293662342", "belong_city_id": "c310168", "_id": {"$oid": "5905e52e78b83736b0db7021"}, "slug": "geneve-centre"}
{"name": "Birdie Food & Coffee", "lon": "6.137660734656", "id": "375892957", "image_url": "https://tse3.mm.bing.net/th?id=OIP.gjI09iRuNblVZqm6ePKCWgDiEs&pid=15.1&P=0&w=300&h=300", "belong_city": "coulouvrenière", "lat": "46.199859146076", "belong_city_id": "c310168", "_id": {"$oid": "5905e52e78b83736b0db7022"}, "slug": "birdie-food-coffee"}
{"name": "Patinoire des Vernets", "lon": "6.13396021", "id": "218160160", "image_url": "https://tse3.mm.bing.net/th?id=OIP.0kOFRVVx2oBjA0as57a0qAEsDh&pid=15.1&P=0&w=300&h=300", "belong_city": "coulouvrenière", "lat": "46.19465546", "belong_city_id": "c310168", "_id": {"$oid": "5905e52e78b83736b0db7023"}, "slug": "patinoire-des-vernets"}
{"name": "Foound", "lon": "6.1372488746667", "id": "585758916", "image_url": "https://tse4.mm.bing.net/th?id=OIP.1lpDJ61Eq31mZSr8jUlIRgEsEs&pid=15.1&P=0&w=300&h=300", "belong_city": "coulouvrenière", "lat": "46.209132326667", "belong_city_id": "c310168", "_id": {"$oid": "5905e52e78b83736b0db7024"}, "slug": "foound"}
{"name": "Envogue", "lon": "6.135691345689", "id": "379664052", "image_url": "https://tse1.mm.bing.net/th?id=OIP.omIPKervM29Ow8jcSDaf7QEsDo&pid=15.1&P=0&w=300&h=300", "belong_city": "coulouvrenière", "lat": "46.205176156384", "belong_city_id": "c310168", "_id": {"$oid": "5905e52e78b83736b0db7025"}, "slug": "envogue"}
{"name": "Gstaad Switzerland", "lon": "6.1394648458964", "id": "314207581", "image_url": "https://tse3.mm.bing.net/th?id=OIP.hRuuDJuhyvxq01aNjVLVqQEsDh&pid=15.1&P=0&w=300&h=300", "belong_city": "coulouvrenière", "lat": "46.202044370394", "belong_city_id": "c310168", "_id": {"$oid": "5905e52e78b83736b0db7026"}, "slug": "gstaad-switzerland"}
{"name": "Centre d’Art Contemporain Genève", "lon": "6.1376", "id": "360478721", "image_url": "https://tse2.mm.bing.net/th?id=OIP.PcLLYJBLpyBZJZswuQDlewEsDe&pid=15.1&P=0&w=300&h=300", "belong_city": "coulouvrenière", "lat": "46.1992", "belong_city_id": "c310168", "_id": {"$oid": "5905e52e78b83736b0db7027"}, "slug": "centre-dart-contemporain-geneve"}
{"name": "Palladium", "lon": "6.13488", "id": "143470", "image_url": "https://tse3.mm.bing.net/th?id=OIP.zTKmaeZioKq6g3-H34dQgwD6D6&pid=15.1&P=0&w=300&h=300", "belong_city": "coulouvrenière", "lat": "46.2033", "belong_city_id": "c310168", "_id": {"$oid": "5905e52e78b83736b0db7028"}, "slug": "palladium"}
{"name": "Brasserie des halles de lîle", "lon": "6.1411496455473", "id": "218481159", "image_url": "https://tse1.mm.bing.net/th?id=OIP.iYNplsMIT6W96O2i24oxbgEsDg&pid=15.1&P=0&w=300&h=300", "belong_city": "coulouvrenière", "lat": "46.204656017552", "belong_city_id": "c310168", "_id": {"$oid": "5905e52e78b83736b0db7029"}, "slug": "brasserie-des-halles-de-lile"}
{"name": "A Geneve", "lon": "6.1335481232955", "id": "785580534", "image_url": "https://tse3.mm.bing.net/th?id=OIP.t34AdvOoDpVMBDr3TSMTSQEsDQ&pid=15.1&P=0&w=300&h=300", "belong_city": "coulouvrenière", "lat": "46.209566258703", "belong_city_id": "c310168", "_id": {"$oid": "5905e52e78b83736b0db702a"}, "slug": "a-geneve"}
{"name": "Post Tenebras Rock - LUsine", "lon": "6.1360812134778", "id": "241663072", "image_url": "https://tse4.mm.bing.net/th?id=OIP.XrxYLtm7g-xApSARvWTF3AGbCX&pid=15.1&P=0&w=300&h=300", "belong_city": "coulouvrenière", "lat": "46.204270551058", "belong_city_id": "c310168", "_id": {"$oid": "5905e52e78b83736b0db702b"}, "slug": "post-tenebras-rock-lusine"}
{"name": "RTS - Radio Television Suisse", "lon": "6.1364206819871", "id": "938430", "image_url": "https://tse2.mm.bing.net/th?id=OIP.Lt3WKeO_gP6cH6H9kTo94wD6BF&pid=15.1&P=0&w=300&h=300", "belong_city": "coulouvrenière", "lat": "46.196634837524", "belong_city_id": "c310168", "_id": {"$oid": "5905e52e78b83736b0db702c"}, "slug": "rts-radio-television-suisse"}
{"name": "Musée dethnographie de Genève", "lon": "6.1373138888889", "id": "911607161", "image_url": "https://tse2.mm.bing.net/th?id=OIP.gt0N_uljiWsav1XomH0ABQEsDH&pid=15.1&P=0&w=300&h=300", "belong_city": "coulouvrenière", "lat": "46.197797222222", "belong_city_id": "c310168", "_id": {"$oid": "5905e52e78b83736b0db702d"}, "slug": "musee-dethnographie-de-geneve"}
{"name": "Kalvingrad", "lon": "6.13628", "id": "26909872", "image_url": "https://tse2.mm.bing.net/th?id=OIP._cwef7Y7Pi1zypzJJ3y5cQDIEs&pid=15.1&P=0&w=300&h=300", "belong_city": "coulouvrenière", "lat": "46.204", "belong_city_id": "c310168", "_id": {"$oid": "5905e52e78b83736b0db702e"}, "slug": "kalvingrad"}
{"name": "Skate Parc de Plainpalais", "lon": "6.14052", "id": "1398313", "image_url": "https://tse1.mm.bing.net/th?id=OIP.BMPZaF34qqfKr3rwSvJLnQEsDh&pid=15.1&P=0&w=300&h=300", "belong_city": "coulouvrenière", "lat": "46.199489832143", "belong_city_id": "c310168", "_id": {"$oid": "5905e52e78b83736b0db702f"}, "slug": "skate-parc-de-plainpalais"}
{"name": "Les Grottes", "lon": "6.1393", "id": "878563857", "image_url": "https://tse2.mm.bing.net/th?id=OIP.QB7VXNOw5W5e0I9Uc1KjNgEsDI&pid=15.1&P=0&w=300&h=300", "belong_city": "coulouvrenière", "lat": "46.2109", "belong_city_id": "c310168", "_id": {"$oid": "5905e52e78b83736b0db7030"}, "slug": "les-grottes"}
{"name": "Bois de la Bâtie", "lon": "6.12569", "id": "831131647", "image_url": "https://tse4.mm.bing.net/th?id=OIP.Xn97s_3nCXQ4lirJLJqhQwEsDL&pid=15.1&P=0&w=300&h=300", "belong_city": "coulouvrenière", "lat": "46.1985", "belong_city_id": "c310168", "_id": {"$oid": "5905e52e78b83736b0db7031"}, "slug": "bois-de-la-batie"}
{"name": "La Gravière - Officiel", "lon": "6.13014", "id": "217134091", "image_url": "https://tse3.mm.bing.net/th?id=OIP.XoMRbt8JHbTuE8mrhObeMwEsA-&pid=15.1&P=0&w=300&h=300", "belong_city": "coulouvrenière", "lat": "46.19743", "belong_city_id": "c310168", "_id": {"$oid": "5905e52e78b83736b0db7032"}, "slug": "la-graviere-officiel"}
{"name": "Musée dart moderne et contemporain", "lon": "6.1375", "id": "235728295", "image_url": "https://tse1.mm.bing.net/th?id=OIP.tkVWeZKos-W3WrXtlAgrmwEsDh&pid=15.1&P=0&w=300&h=300", "belong_city": "coulouvrenière", "lat": "46.19877", "belong_city_id": "c310168", "_id": {"$oid": "5905e52e78b83736b0db7033"}, "slug": "musee-dart-moderne-et-contemporain"}
{"name": "Haute école dart et de design - Genève", "lon": "6.14129", "id": "661347", "image_url": "https://tse1.mm.bing.net/th?id=OIP.jmXLFbc5QJIOvGoCT_mrOgDTEs&pid=15.1&P=0&w=300&h=300", "belong_city": "coulouvrenière", "lat": "46.2089", "belong_city_id": "c310168", "_id": {"$oid": "5905e52e78b83736b0db7034"}, "slug": "haute-ecole-dart-et-de-design-geneve"}
{"name": "Funky Monkey Room aka FMR", "lon": "6.13573", "id": "11437349", "image_url": "https://tse1.mm.bing.net/th?id=OIP.AK8z9Z4ojtJxEC7s-spr3wDIEs&pid=15.1&P=0&w=300&h=300", "belong_city": "coulouvrenière", "lat": "46.2034", "belong_city_id": "c310168", "_id": {"$oid": "5905e52e78b83736b0db7035"}, "slug": "funky-monkey-room-aka-fmr"}
{"name": "Genève, Suisse.", "lon": "6.1390901", "id": "215163269", "image_url": "https://tse2.mm.bing.net/th?id=OIP.8CCTUqA5TSpdOEY3VhwYNQE1DK&pid=15.1&P=0&w=300&h=300", "belong_city": "coulouvrenière", "lat": "46.2096825", "belong_city_id": "c310168", "_id": {"$oid": "5905e52e78b83736b0db7036"}, "slug": "geneve-suisse"}
{"name": "CrossFit GVA", "lon": "6.1367369578045", "id": "5248381", "image_url": "https://tse3.mm.bing.net/th?id=OIP.AvoyruBOo_M8_4hZHsmcmwEsDT&pid=15.1&P=0&w=300&h=300", "belong_city": "coulouvrenière", "lat": "46.208693517285", "belong_city_id": "c310168", "_id": {"$oid": "5905e52e78b83736b0db7037"}, "slug": "crossfit-gva"}
{"name": "MAMCO", "lon": "6.1375", "id": "1034175883323118", "image_url": "https://tse3.mm.bing.net/th?id=OIP.VfTieS6dFcEB8CN0bSl8FAEsDh&pid=15.1&P=0&w=300&h=300", "belong_city": "coulouvrenière", "lat": "46.19877", "belong_city_id": "c310168", "_id": {"$oid": "5905e52e78b83736b0db7038"}, "slug": "mamco"}
{"name": "Jonction", "lon": "6.1312725674418", "id": "26611089", "image_url": "https://tse2.mm.bing.net/th?id=OIP.NqfJiSn429JsJIM_98XbhwEsDh&pid=15.1&P=0&w=300&h=300", "belong_city": "coulouvrenière", "lat": "46.200293827", "belong_city_id": "c310168", "_id": {"$oid": "5905e52e78b83736b0db7039"}, "slug": "jonction"}
{"name": "Cercle des Bains", "lon": "6.1378969794445", "id": "287833217", "image_url": "https://tse3.mm.bing.net/th?id=OIP.7-W-VYCym__cY9k7HrI3gQEsCW&pid=15.1&P=0&w=300&h=300", "belong_city": "coulouvrenière", "lat": "46.199011166569", "belong_city_id": "c310168", "_id": {"$oid": "5905e52e78b83736b0db703a"}, "slug": "cercle-des-bains"}
{"name": "MAMCO Genève", "lon": "6.13823", "id": "282473204", "image_url": "https://tse3.mm.bing.net/th?id=OIP.VfTieS6dFcEB8CN0bSl8FAEsDh&pid=15.1&P=0&w=300&h=300", "belong_city": "coulouvrenière", "lat": "46.19863", "belong_city_id": "c310168", "_id": {"$oid": "5905e52e78b83736b0db703b"}, "slug": "mamco-geneve"}
{"name": "Genève , Quai Du Seujet", "lon": "6.1354750883526", "id": "249181809", "image_url": "https://tse1.mm.bing.net/th?id=OIP._GrOgIHUG3iTVP9z2lFunwEsDM&pid=15.1&P=0&w=300&h=300", "belong_city": "coulouvrenière", "lat": "46.205313989759", "belong_city_id": "c310168", "_id": {"$oid": "5905e52e78b83736b0db703c"}, "slug": "geneve-quai-du-seujet"}
{"name": "Uptown Geneva", "lon": "6.1393307803955", "id": "220249015", "image_url": "https://tse3.mm.bing.net/th?id=OIP.BaK_8UUQ3ekYe6L85alHzwEsCg&pid=15.1&P=0&w=300&h=300", "belong_city": "coulouvrenière", "lat": "46.209345447291", "belong_city_id": "c310168", "_id": {"$oid": "5905e52e78b83736b0db703d"}, "slug": "uptown-geneva"}
{"name": "Le Moulin Rouge", "lon": "6.13978", "id": "456546710", "image_url": "https://tse3.mm.bing.net/th?id=OIP.5DkmOHxhyjdx9X_iaXhbrQESDj&pid=15.1&P=0&w=300&h=300", "belong_city": "coulouvrenière", "lat": "46.2009", "belong_city_id": "c310168", "_id": {"$oid": "5905e52e78b83736b0db703e"}, "slug": "le-moulin-rouge"}
{"name": "LE KRAKEN BAR", "lon": "6.138454663752", "id": "9865651", "image_url": "https://tse3.mm.bing.net/th?id=OIP.fqdc--x0Qa7bdBa-L5pchwEsDh&pid=15.1&P=0&w=300&h=300", "belong_city": "coulouvrenière", "lat": "46.197331719964", "belong_city_id": "c310168", "_id": {"$oid": "5905e52e78b83736b0db703f"}, "slug": "le-kraken-bar"}
{"name": "Musée dethnographie de Genève - MEG", "lon": "6.1367587", "id": "280706704", "image_url": "https://tse2.mm.bing.net/th?id=OIP.gt0N_uljiWsav1XomH0ABQEsDH&pid=15.1&P=0&w=300&h=300", "belong_city": "coulouvrenière", "lat": "46.197652", "belong_city_id": "c310168", "_id": {"$oid": "5905e52e78b83736b0db7040"}, "slug": "musee-dethnographie-de-geneve-meg"}
{"name": "A La Jonction", "lon": "6.1299054", "id": "251338984", "image_url": "https://tse2.mm.bing.net/th?id=OIP.EaXE-yvaFTqgt_fTurdN_AEsDK&pid=15.1&P=0&w=300&h=300", "belong_city": "coulouvrenière", "lat": "46.20081666", "belong_city_id": "c310168", "_id": {"$oid": "5905e52e78b83736b0db7041"}, "slug": "a-la-jonction"}
{"name": "Carouge, Switzerland", "lon": "6.13333", "id": "227825687", "image_url": "https://tse3.mm.bing.net/th?id=OIP.rbyQtzAZCTv6hBN_3Xg64wEsEs&pid=15.1&P=0&w=300&h=300", "belong_city": "les acacias", "lat": "46.1833", "belong_city_id": "c311192", "_id": {"$oid": "5905e52e78b83736b0db7042"}, "slug": "carouge-switzerland"}
{"name": "Suisse,geneve", "lon": "6.13783", "id": "237252600", "image_url": "https://tse4.mm.bing.net/th?id=OIP.J1dqO1hD41xQ5lumwz37YgEsC-&pid=15.1&P=0&w=300&h=300", "belong_city": "les acacias", "lat": "46.18864", "belong_city_id": "c311192", "_id": {"$oid": "5905e52e78b83736b0db7043"}, "slug": "suissegeneve"}
{"name": "Bypass Geneva", "lon": "6.12796", "id": "222929149", "image_url": "https://tse1.mm.bing.net/th?id=OIP.14RpyvfrEFCRaIs6IAjAOAEsDI&pid=15.1&P=0&w=300&h=300", "belong_city": "les acacias", "lat": "46.18752", "belong_city_id": "c311192", "_id": {"$oid": "5905e52e78b83736b0db7044"}, "slug": "bypass-geneva"}
{"name": "La Praille", "lon": "6.1281544871062", "id": "237801536", "image_url": "https://tse2.mm.bing.net/th?id=OIP.v00GyPswSqCoPSvogHYM4AEsDh&pid=15.1&P=0&w=300&h=300", "belong_city": "les acacias", "lat": "46.179885474266", "belong_city_id": "c311192", "_id": {"$oid": "5905e52e78b83736b0db7045"}, "slug": "la-praille"}
{"name": "Carouge Geneva", "lon": "6.1400157534752", "id": "219063254", "image_url": "https://tse4.mm.bing.net/th?id=OIP.n6rj6E1pZcKybRdI8B2sOgEsDh&pid=15.1&P=0&w=300&h=300", "belong_city": "les acacias", "lat": "46.18170317359", "belong_city_id": "c311192", "_id": {"$oid": "5905e52e78b83736b0db7046"}, "slug": "carouge-geneva"}
{"name": "Stade de Genève", "lon": "6.1275", "id": "803325416", "image_url": "https://tse1.mm.bing.net/th?id=OIP.OSLBIy8y__RT2_NRHOsDCwEsDI&pid=15.1&P=0&w=300&h=300", "belong_city": "les acacias", "lat": "46.177778", "belong_city_id": "c311192", "_id": {"$oid": "5905e52e78b83736b0db7047"}, "slug": "stade-de-geneve"}
{"name": "Rue de Carouge", "lon": "6.1430475605352", "id": "13025399", "image_url": "https://tse4.mm.bing.net/th?id=OIP.GrmXZRhqxuPjaNwewb3kQAEsDH&pid=15.1&P=0&w=300&h=300", "belong_city": "les acacias", "lat": "46.189425877375", "belong_city_id": "c311192", "_id": {"$oid": "5905e52e78b83736b0db7048"}, "slug": "rue-de-carouge"}
{"name": "Village du Soir", "lon": "6.1275708675385", "id": "1599924590303387", "image_url": "https://tse4.mm.bing.net/th?id=OIP.Slu-kcBz6Teo12P2pUcwTwEsDI&pid=15.1&P=0&w=300&h=300", "belong_city": "les acacias", "lat": "46.176665726047", "belong_city_id": "c311192", "_id": {"$oid": "5905e52e78b83736b0db7049"}, "slug": "village-du-soir"}
{"name": "A Geneve", "lon": "6.1287181259436", "id": "508340798", "image_url": "https://tse3.mm.bing.net/th?id=OIP.t34AdvOoDpVMBDr3TSMTSQEsDQ&pid=15.1&P=0&w=300&h=300", "belong_city": "les acacias", "lat": "46.173927719412", "belong_city_id": "c311192", "_id": {"$oid": "5905e52e78b83736b0db704a"}, "slug": "a-geneve"}
{"name": "Genève - Swisse", "lon": "6.14125996456", "id": "252133674", "image_url": "https://tse2.mm.bing.net/th?id=OIP.h_OsQBeY9EJbwQ-V63-5hAEMDo&pid=15.1&P=0&w=300&h=300", "belong_city": "les acacias", "lat": "46.1746387017", "belong_city_id": "c311192", "_id": {"$oid": "5905e52e78b83736b0db704b"}, "slug": "geneve-swisse"}
{"name": "Carouge", "lon": "6.1387043215228", "id": "256670", "image_url": "https://tse2.mm.bing.net/th?id=OIP.HIiEQmgLLPxtpcXdRmMCpQEsDh&pid=15.1&P=0&w=300&h=300", "belong_city": "les acacias", "lat": "46.179894312535", "belong_city_id": "c311192", "_id": {"$oid": "5905e52e78b83736b0db704c"}, "slug": "carouge"}
{"name": "Chat Noir Carouge", "lon": "6.1423386415884", "id": "246984070", "image_url": "https://tse1.mm.bing.net/th?id=OIP.bcXPK2BUpsihBEDoiEHKzgEXEs&pid=15.1&P=0&w=300&h=300", "belong_city": "les acacias", "lat": "46.185089067778", "belong_city_id": "c311192", "_id": {"$oid": "5905e52e78b83736b0db704d"}, "slug": "chat-noir-carouge"}
{"name": "Marché Noir", "lon": "6.14186", "id": "1006697238", "image_url": "https://tse2.mm.bing.net/th?id=OIP.LudsDGFCWjMBMBXYK76qHwDcEs&pid=15.1&P=0&w=300&h=300", "belong_city": "les acacias", "lat": "46.18545", "belong_city_id": "c311192", "_id": {"$oid": "5905e52e78b83736b0db704e"}, "slug": "marche-noir"}
{"name": "Stade de Genève", "lon": "6.1276038028093", "id": "1295005", "image_url": "https://tse1.mm.bing.net/th?id=OIP.OSLBIy8y__RT2_NRHOsDCwEsDI&pid=15.1&P=0&w=300&h=300", "belong_city": "les acacias", "lat": "46.1780407103", "belong_city_id": "c311192", "_id": {"$oid": "5905e52e78b83736b0db704f"}, "slug": "stade-de-geneve"}
{"name": "Unofficial: Bypass Geneva", "lon": "6.1281174510698", "id": "270574529", "belong_city": "les acacias", "lat": "46.187236425", "belong_city_id": "c311192", "_id": {"$oid": "5905e52e78b83736b0db7050"}, "slug": "unofficial-bypass-geneva"}
{"name": "Arena Cinemas Genève - La Praille", "lon": "6.1283063993145", "id": "318240011", "image_url": "https://tse3.mm.bing.net/th?id=OIP.--x_1vxkDX-Q4YYtCgOrAgEsCL&pid=15.1&P=0&w=300&h=300", "belong_city": "les acacias", "lat": "46.180405480982", "belong_city_id": "c311192", "_id": {"$oid": "5905e52e78b83736b0db7051"}, "slug": "arena-cinemas-geneve-la-praille"}
{"name": "Les Acacias, Geneve, Switzerland", "lon": "6.13333", "id": "248370698", "image_url": "https://tse2.mm.bing.net/th?id=OIP.-0iynlPRehcLIILJEKI7XQEsDH&pid=15.1&P=0&w=300&h=300", "belong_city": "les acacias", "lat": "46.1833", "belong_city_id": "c311192", "_id": {"$oid": "5905e52e78b83736b0db7052"}, "slug": "les-acacias-geneve-switzerland"}
{"name": "Genève, Stade de La Praille.", "lon": "6.1276879382578", "id": "238037235", "image_url": "https://tse3.mm.bing.net/th?id=OIP.gHfuyzf59XN92Gll9YXaeQEsBI&pid=15.1&P=0&w=300&h=300", "belong_city": "les acacias", "lat": "46.178246081628", "belong_city_id": "c311192", "_id": {"$oid": "5905e52e78b83736b0db7053"}, "slug": "geneve-stade-de-la-praille"}
{"name": "MonteCristo Club", "lon": "6.13795", "id": "340083220", "image_url": "https://tse4.mm.bing.net/th?id=OIP.IWwtWnYiR4FsjuhX9srwVAEaEs&pid=15.1&P=0&w=300&h=300", "belong_city": "les acacias", "lat": "46.1902199", "belong_city_id": "c311192", "_id": {"$oid": "5905e52e78b83736b0db7054"}, "slug": "montecristo-club"}
{"name": "StaminA Crossgym GVA", "lon": "6.13863", "id": "1008222567", "image_url": "https://s.yimg.com/kx/yucs/uh3s/promo-ff/1/images/ff_icon-compressed.png", "belong_city": "les acacias", "lat": "46.18891", "belong_city_id": "c311192", "_id": {"$oid": "5905e52e78b83736b0db7055"}, "slug": "stamina-crossgym-gva"}
{"name": "INKVADERS TATTOO", "lon": "6.1390065609666", "id": "434642428", "image_url": "https://tse3.mm.bing.net/th?id=OIP.dMWJfkQiCB7fHf_L9DjBygEPEs&pid=15.1&P=0&w=300&h=300", "belong_city": "les acacias", "lat": "46.179584487756", "belong_city_id": "c311192", "_id": {"$oid": "5905e52e78b83736b0db7056"}, "slug": "inkvaders-tattoo"}
{"name": "Ramada Encore Genève", "lon": "6.1271725753668", "id": "239939027", "image_url": "https://tse4.mm.bing.net/th?id=OIP.o0U6nW9PcCGj4SRJIoQn8QEsCM&pid=15.1&P=0&w=300&h=300", "belong_city": "les acacias", "lat": "46.179096980665", "belong_city_id": "c311192", "_id": {"$oid": "5905e52e78b83736b0db7057"}, "slug": "ramada-encore-geneve"}
{"name": "Bowling de la Praille", "lon": "6.1280477042025", "id": "260427", "image_url": "https://tse1.mm.bing.net/th?id=OIP.d16GXp_TzKtgPtx922tPuAEsDJ&pid=15.1&P=0&w=300&h=300", "belong_city": "les acacias", "lat": "46.179792988496", "belong_city_id": "c311192", "_id": {"$oid": "5905e52e78b83736b0db7058"}, "slug": "bowling-de-la-praille"}
{"name": "Inkvaders Tattoo Studio", "lon": "6.139051857907", "id": "1367459", "image_url": "https://tse4.mm.bing.net/th?id=OIP.JBDqrsLIll2hWyw1OWVMxwEsEs&pid=15.1&P=0&w=300&h=300", "belong_city": "les acacias", "lat": "46.179588817541", "belong_city_id": "c311192", "_id": {"$oid": "5905e52e78b83736b0db7059"}, "slug": "inkvaders-tattoo-studio"}
{"name": "Bypass", "lon": "6.1281917090097", "id": "717821", "image_url": "https://tse2.mm.bing.net/th?id=OIP.cJG-xmDsW_CXp1UHAyCXSgEsD0&pid=15.1&P=0&w=300&h=300", "belong_city": "les acacias", "lat": "46.187220492772", "belong_city_id": "c311192", "_id": {"$oid": "5905e52e78b83736b0db705a"}, "slug": "bypass"}
{"name": "Place de La Sardaigne", "lon": "6.1388192230511", "id": "4466728", "image_url": "https://tse4.mm.bing.net/th?id=OIP.wlxgGhx3kccUn0JQMPJDpgEsDh&pid=15.1&P=0&w=300&h=300", "belong_city": "les acacias", "lat": "46.184079670726", "belong_city_id": "c311192", "_id": {"$oid": "5905e52e78b83736b0db705b"}, "slug": "place-de-la-sardaigne"}
{"name": "Fête de la tomate", "lon": "6.1391032936808", "id": "333362701", "image_url": "https://tse3.mm.bing.net/th?id=OIP.AeJnaqZFPGnUwRPRZ2zSiwD0Es&pid=15.1&P=0&w=300&h=300", "belong_city": "les acacias", "lat": "46.183808658496", "belong_city_id": "c311192", "_id": {"$oid": "5905e52e78b83736b0db705c"}, "slug": "fete-de-la-tomate"}
{"name": "Place Du Marché", "lon": "6.1417131761918", "id": "4811742", "image_url": "https://tse2.mm.bing.net/th?id=OIP.MbeECMy2MuK9kwe0KtW33AEsDR&pid=15.1&P=0&w=300&h=300", "belong_city": "les acacias", "lat": "46.184433477743", "belong_city_id": "c311192", "_id": {"$oid": "5905e52e78b83736b0db705d"}, "slug": "place-du-marche"}
{"name": "Vielle Ville", "lon": "6.13607192", "id": "345240481", "image_url": "https://tse2.mm.bing.net/th?id=OIP.3QYg6epM6a1qOmjHXuW0twEsDx&pid=15.1&P=0&w=300&h=300", "belong_city": "les acacias", "lat": "46.18943313", "belong_city_id": "c311192", "_id": {"$oid": "5905e52e78b83736b0db705e"}, "slug": "vielle-ville"}
{"name": "Pavillon Sicli", "lon": "6.1293101", "id": "1015749175", "image_url": "https://s.yimg.com/kx/yucs/uh3s/promo-ff/1/images/ff_icon-compressed.png", "belong_city": "les acacias", "lat": "46.188839", "belong_city_id": "c311192", "_id": {"$oid": "5905e52e78b83736b0db705f"}, "slug": "pavillon-sicli"}
{"name": "La Praille, Geneve, Switzerland", "lon": "6.1280651957845", "id": "252395806", "image_url": "https://tse1.mm.bing.net/th?id=OIP.Kw8-m3Qmnw_Ta4GMWZBFtgEsCd&pid=15.1&P=0&w=300&h=300", "belong_city": "les acacias", "lat": "46.179192276263", "belong_city_id": "c311192", "_id": {"$oid": "5905e52e78b83736b0db7060"}, "slug": "la-praille-geneve-switzerland"}
{"name": "Studio 420", "lon": "6.1323773860931", "id": "1017960395", "image_url": "https://tse3.mm.bing.net/th?id=OIP.pYfjipwl6YQi3w1OR0RmoQEsEs&pid=15.1&P=0&w=300&h=300", "belong_city": "les acacias", "lat": "46.187904720403", "belong_city_id": "c311192", "_id": {"$oid": "5905e52e78b83736b0db7061"}, "slug": "studio-420"}
{"name": "Carouge, Geneva - Switzerland", "lon": "6.1385930572257", "id": "287837502", "image_url": "https://tse3.mm.bing.net/th?id=OIP.bK0i6keV45KoBHkdtJqA9QEsDh&pid=15.1&P=0&w=300&h=300", "belong_city": "les acacias", "lat": "46.189680398842", "belong_city_id": "c311192", "_id": {"$oid": "5905e52e78b83736b0db7062"}, "slug": "carouge-geneva-switzerland"}
{"name": "Marché de Carouge", "lon": "6.14212", "id": "847738", "image_url": "https://s.yimg.com/kx/yucs/uh3s/promo-ff/1/images/ff_icon-compressed.png", "belong_city": "les acacias", "lat": "46.1843999", "belong_city_id": "c311192", "_id": {"$oid": "5905e52e78b83736b0db7063"}, "slug": "marche-de-carouge"}
{"name": "Motel Campo", "lon": "6.1288398034188", "id": "247811886", "image_url": "https://tse3.mm.bing.net/th?id=OIP.na7AEc-B_hV30F1epWE60gEsDI&pid=15.1&P=0&w=300&h=300", "belong_city": "les acacias", "lat": "46.185552045122", "belong_city_id": "c311192", "_id": {"$oid": "5905e52e78b83736b0db7064"}, "slug": "motel-campo"}
{"name": "CREA Genève - INSEEC", "lon": "6.1310333027273", "id": "13356815", "image_url": "https://tse4.mm.bing.net/th?id=OIP.DS1Qo-RfitUJee_mYfo4LwEsDW&pid=15.1&P=0&w=300&h=300", "belong_city": "les acacias", "lat": "46.191302053077", "belong_city_id": "c311192", "_id": {"$oid": "5905e52e78b83736b0db7065"}, "slug": "crea-geneve-inseec"}
{"name": "Café du Marché Carouge", "lon": "6.1411099", "id": "838719877", "image_url": "https://s.yimg.com/kx/yucs/uh3s/promo-ff/1/images/ff_icon-compressed.png", "belong_city": "les acacias", "lat": "46.1843987", "belong_city_id": "c311192", "_id": {"$oid": "5905e52e78b83736b0db7066"}, "slug": "cafe-du-marche-carouge"}
{"name": "quimporte", "lon": "6.1414700740742", "id": "10250276", "image_url": "https://s.yimg.com/kx/yucs/uh3s/promo-ff/1/images/ff_icon-compressed.png", "belong_city": "les acacias", "lat": "46.18325335375", "belong_city_id": "c311192", "_id": {"$oid": "5905e52e78b83736b0db7067"}, "slug": "quimporte"}
{"name": "Grotesque Tattooing", "lon": "6.1298882961273", "id": "1021789238", "image_url": "https://tse4.mm.bing.net/th?id=OIP.948vFNEEC0Kh3qwBsOptvAEsDT&pid=15.1&P=0&w=300&h=300", "belong_city": "les acacias", "lat": "46.184272540594", "belong_city_id": "c311192", "_id": {"$oid": "5905e52e78b83736b0db7068"}, "slug": "grotesque-tattooing"}
{"name": "Grand Central Festival Antigel", "lon": "6.1268627643585", "id": "589490490", "image_url": "https://tse3.mm.bing.net/th?id=OIP.Q3ByLH4UJn9-ogCrH-rESwEsDI&pid=15.1&P=0&w=300&h=300", "belong_city": "les acacias", "lat": "46.186575177317", "belong_city_id": "c311192", "_id": {"$oid": "5905e52e78b83736b0db7069"}, "slug": "grand-central-festival-antigel"}
{"name": "Tambourine", "lon": "6.1407800929859", "id": "259742912", "image_url": "https://tse3.mm.bing.net/th?id=OIP.9Q89ReqLR1nqbfxp6jLAtwEsEs&pid=15.1&P=0&w=300&h=300", "belong_city": "les acacias", "lat": "46.175163700119", "belong_city_id": "c311192", "_id": {"$oid": "5905e52e78b83736b0db706a"}, "slug": "tambourine"}
{"name": "Le Cheval Blanc Carouge", "lon": "6.1398378", "id": "886843", "image_url": "https://tse3.mm.bing.net/th?id=OIP.h6cOAG1ElLD38WgFGY7bDgEsEs&pid=15.1&P=0&w=300&h=300", "belong_city": "les acacias", "lat": "46.1875397", "belong_city_id": "c311192", "_id": {"$oid": "5905e52e78b83736b0db706b"}, "slug": "le-cheval-blanc-carouge"}
{"name": "Le Flacon", "lon": "6.14183", "id": "1019721275", "image_url": "https://s.yimg.com/kx/yucs/uh3s/promo-ff/1/images/ff_icon-compressed.png", "belong_city": "les acacias", "lat": "46.1833992", "belong_city_id": "c311192", "_id": {"$oid": "5905e52e78b83736b0db706c"}, "slug": "le-flacon"}
{"name": "Ô Calme", "lon": "6.1407111553144", "id": "11693313", "image_url": "https://tse2.mm.bing.net/th?id=OIP.iVqf3YcGXoUKPOqRiqoKqgEsDU&pid=15.1&P=0&w=300&h=300", "belong_city": "les acacias", "lat": "46.182008346745", "belong_city_id": "c311192", "_id": {"$oid": "5905e52e78b83736b0db706d"}, "slug": "o-calme"}
{"name": "Crea Genève", "lon": "6.130809785", "id": "1663856", "image_url": "https://tse1.mm.bing.net/th?id=OIP.wZL3Bne8uxhN7MxisCb8bAEsEs&pid=15.1&P=0&w=300&h=300", "belong_city": "les acacias", "lat": "46.19148779", "belong_city_id": "c311192", "_id": {"$oid": "5905e52e78b83736b0db706e"}, "slug": "crea-geneve"}
{"name": "Centre Commercial La Praille", "lon": "6.1284614801443", "id": "733548", "image_url": "https://tse4.mm.bing.net/th?id=OIP.VkOZnI7FQ8kSapMSlovxPgEsCt&pid=15.1&P=0&w=300&h=300", "belong_city": "les acacias", "lat": "46.179355715415", "belong_city_id": "c311192", "_id": {"$oid": "5905e52e78b83736b0db706f"}, "slug": "centre-commercial-la-praille"}
{"name": "Harmony Fitness Club La Praille", "lon": "6.1279473141999", "id": "4415275", "image_url": "https://tse2.mm.bing.net/th?id=OIP.FVJlTmKdKhCPaxa1jfRHIAEsDH&pid=15.1&P=0&w=300&h=300", "belong_city": "les acacias", "lat": "46.180013897665", "belong_city_id": "c311192", "_id": {"$oid": "5905e52e78b83736b0db7070"}, "slug": "harmony-fitness-club-la-praille"}
{"name": "Sardaigne", "lon": "6.1390331", "id": "960284650", "image_url": "https://tse2.mm.bing.net/th?id=OIP.Ssyra3k11ur_MOE2pGdqgwEsDh&pid=15.1&P=0&w=300&h=300", "belong_city": "les acacias", "lat": "46.1839236", "belong_city_id": "c311192", "_id": {"$oid": "5905e52e78b83736b0db7071"}, "slug": "sardaigne"}
{"name": "Renens, Vaud", "lon": "6.58333", "id": "226122366", "image_url": "https://tse3.mm.bing.net/th?id=OIP.Og1h4PYsnAqMW-1v3v1bbgEsDo&pid=15.1&P=0&w=300&h=300", "belong_city": "renens", "lat": "46.5333", "belong_city_id": "c311991", "_id": {"$oid": "5905e52e78b83736b0db7072"}, "slug": "renens-vaud"}
{"name": "ECAL/Ecole cantonale dart de Lausanne", "lon": "6.5883306497311", "id": "229782837", "image_url": "https://tse1.mm.bing.net/th?id=OIP.IejL3DUXPfxxFeRKTiRZwwEsDF&pid=15.1&P=0&w=300&h=300", "belong_city": "renens", "lat": "46.536865059696", "belong_city_id": "c311991", "_id": {"$oid": "5905e52e78b83736b0db7073"}, "slug": "ecalecole-cantonale-dart-de-lausanne"}
{"name": "Prilly, Switzerland", "lon": "6.58333", "id": "239011527", "image_url": "https://tse1.mm.bing.net/th?id=OIP.wThuEfUe792OchHAwhZCNAEsDh&pid=15.1&P=0&w=300&h=300", "belong_city": "renens", "lat": "46.5333", "belong_city_id": "c311991", "_id": {"$oid": "5905e52e78b83736b0db7074"}, "slug": "prilly-switzerland"}
{"name": "Lausanne Malley", "lon": "6.60663466981", "id": "250411413", "image_url": "https://s.yimg.com/kx/yucs/uh3s/promo-ff/1/images/ff_icon-compressed.png", "belong_city": "renens", "lat": "46.5287035035", "belong_city_id": "c311991", "_id": {"$oid": "5905e52e78b83736b0db7075"}, "slug": "lausanne-malley"}
{"name": "Université de Lausanne - Dorigny", "lon": "6.5840409688068", "id": "269361236", "image_url": "https://tse4.mm.bing.net/th?id=OIP.4URT-p4ASqWRLkgUnEdN0gEsBx&pid=15.1&P=0&w=300&h=300", "belong_city": "renens", "lat": "46.522341660769", "belong_city_id": "c311991", "_id": {"$oid": "5905e52e78b83736b0db7076"}, "slug": "universite-de-lausanne-dorigny"}
{"name": "Chavannes-près-Renens", "lon": "6.5833333333333", "id": "238607267", "image_url": "https://tse1.mm.bing.net/th?id=OIP.qu3M5_uKHZwrrDl_CiMRZwDtEs&pid=15.1&P=0&w=300&h=300", "belong_city": "renens", "lat": "46.533333333333", "belong_city_id": "c311991", "_id": {"$oid": "5905e52e78b83736b0db7077"}, "slug": "chavannes-pres-renens"}
{"name": "Renens Centre", "lon": "6.5812396175431", "id": "675581167", "image_url": "https://tse2.mm.bing.net/th?id=OIP.zYcskSqYOMSrnL7OtAq9LwEsDH&pid=15.1&P=0&w=300&h=300", "belong_city": "renens", "lat": "46.538273821942", "belong_city_id": "c311991", "_id": {"$oid": "5905e52e78b83736b0db7078"}, "slug": "renens-centre"}
{"name": "International Olympic Committee", "lon": "6.5969444444444", "id": "3350237", "image_url": "https://tse4.mm.bing.net/th?id=OIP.mQMEop4XQhWVLV3kGiO9UgEsCv&pid=15.1&P=0&w=300&h=300", "belong_city": "renens", "lat": "46.518055555556", "belong_city_id": "c311991", "_id": {"$oid": "5905e52e78b83736b0db7079"}, "slug": "international-olympic-committee"}
{"name": "Paris France", "lon": "6.58979983605", "id": "221994467", "image_url": "https://tse3.mm.bing.net/th?id=OIP.gIr1JyUr6HzXuyoQLu3BiQEsDh&pid=15.1&P=0&w=300&h=300", "belong_city": "renens", "lat": "46.5355754097", "belong_city_id": "c311991", "_id": {"$oid": "5905e52e78b83736b0db707a"}, "slug": "paris-france"}
{"name": "Lac de Vidy", "lon": "6.5908868183591", "id": "234940414", "image_url": "https://tse4.mm.bing.net/th?id=OIP.NPbpNvjpb8cSChDaZmmOlAEsCo&pid=15.1&P=0&w=300&h=300", "belong_city": "renens", "lat": "46.518595604937", "belong_city_id": "c311991", "_id": {"$oid": "5905e52e78b83736b0db707b"}, "slug": "lac-de-vidy"}
{"name": "Université de Lausanne - Anthropole", "lon": "6.5845125545253", "id": "1071320", "image_url": "https://tse1.mm.bing.net/th?id=OIP.kMPeT6tcCqv-mrkyptlYeQEsDh&pid=15.1&P=0&w=300&h=300", "belong_city": "renens", "lat": "46.523348265598", "belong_city_id": "c311991", "_id": {"$oid": "5905e52e78b83736b0db707c"}, "slug": "universite-de-lausanne-anthropole"}
{"name": "Malley - LHC", "lon": "6.6002660057122", "id": "743992340", "image_url": "https://tse1.mm.bing.net/th?id=OIP.uMZEwekGP0ILlyIat3GA7gEsDh&pid=15.1&P=0&w=300&h=300", "belong_city": "renens", "lat": "46.528753272355", "belong_city_id": "c311991", "_id": {"$oid": "5905e52e78b83736b0db707d"}, "slug": "malley-lhc"}
{"name": "CIG de Malley", "lon": "6.600111", "id": "400962253", "image_url": "https://tse4.mm.bing.net/th?id=OIP.L7BX46pyFjDfRgIl1vNvlQEsEs&pid=15.1&P=0&w=300&h=300", "belong_city": "renens", "lat": "46.528717", "belong_city_id": "c311991", "_id": {"$oid": "5905e52e78b83736b0db707e"}, "slug": "cig-de-malley"}
{"name": "Fitnessparc Malley", "lon": "6.6023474076006", "id": "268005603", "image_url": "https://tse4.mm.bing.net/th?id=OIP.ZbjpW00wF6ZzguPTndsaNQEsDh&pid=15.1&P=0&w=300&h=300", "belong_city": "renens", "lat": "46.527634935568", "belong_city_id": "c311991", "_id": {"$oid": "5905e52e78b83736b0db707f"}, "slug": "fitnessparc-malley"}
{"name": "Ecal", "lon": "6.5883628380332", "id": "1315745", "image_url": "https://tse2.mm.bing.net/th?id=OIP.TdiImALtlaSeLD1Gr-SmugEsDx&pid=15.1&P=0&w=300&h=300", "belong_city": "renens", "lat": "46.536919511581", "belong_city_id": "c311991", "_id": {"$oid": "5905e52e78b83736b0db7080"}, "slug": "ecal"}
{"name": "Suisse / Genève", "lon": "6.57712", "id": "258873259", "image_url": "https://tse2.mm.bing.net/th?id=OIP.9pKXDK0TQnk3ppyxcWMc_wEsDD&pid=15.1&P=0&w=300&h=300", "belong_city": "renens", "lat": "46.53854", "belong_city_id": "c311991", "_id": {"$oid": "5905e52e78b83736b0db7081"}, "slug": "suisse-geneve"}
{"name": "Patinoire de Malley", "lon": "6.6003107331392", "id": "47768", "image_url": "https://tse2.mm.bing.net/th?id=OIP.X9nWZMVhGV6g0p1kTnLsgQEsDg&pid=15.1&P=0&w=300&h=300", "belong_city": "renens", "lat": "46.528708318801", "belong_city_id": "c311991", "_id": {"$oid": "5905e52e78b83736b0db7082"}, "slug": "patinoire-de-malley"}
{"name": "Crisser", "lon": "6.57831662", "id": "260818455", "image_url": "https://tse3.mm.bing.net/th?id=OIP.mSgZ3XMZfuYaHoeICOVAHwDPEs&pid=15.1&P=0&w=300&h=300", "belong_city": "renens", "lat": "46.53899359", "belong_city_id": "c311991", "_id": {"$oid": "5905e52e78b83736b0db7083"}, "slug": "crisser"}
{"name": "Patinoire de Malley, Lausanne, Suisse", "lon": "6.60011", "id": "1025709762", "image_url": "https://tse1.mm.bing.net/th?id=OIP.L7BX46pyFjDfRgIl1vNvlQEsEs&pid=15.1&P=0&w=300&h=300", "belong_city": "renens", "lat": "46.52785", "belong_city_id": "c311991", "_id": {"$oid": "5905e52e78b83736b0db7084"}, "slug": "patinoire-de-malley-lausanne-suisse"}
{"name": "Piscine de Renens", "lon": "6.5836424746664", "id": "2677024", "image_url": "https://tse4.mm.bing.net/th?id=OIP.rpjHOh04XYjGEGwXOC1D_AEsCj&pid=15.1&P=0&w=300&h=300", "belong_city": "renens", "lat": "46.529971737395", "belong_city_id": "c311991", "_id": {"$oid": "5905e52e78b83736b0db7085"}, "slug": "piscine-de-renens"}
{"name": "Cathedral International Lausanne", "lon": "6.5916499", "id": "1759338647683268", "image_url": "https://tse1.mm.bing.net/th?id=OIP.NXZTnngLDCNlgxRHLT2QAgEsDP&pid=15.1&P=0&w=300&h=300", "belong_city": "renens", "lat": "46.53034", "belong_city_id": "c311991", "_id": {"$oid": "5905e52e78b83736b0db7086"}, "slug": "cathedral-international-lausanne"}
{"name": "Université de Lausanne - Internef", "lon": "6.5853963290017", "id": "235456598", "image_url": "https://tse4.mm.bing.net/th?id=OIP.VpE0DlNR8ifQHiSXhpy6QgEsDD&pid=15.1&P=0&w=300&h=300", "belong_city": "renens", "lat": "46.522258089134", "belong_city_id": "c311991", "_id": {"$oid": "5905e52e78b83736b0db7087"}, "slug": "universite-de-lausanne-internef"}
{"name": "Lausanne Hockey Club", "lon": "6.5998986459831", "id": "400931466", "image_url": "https://tse1.mm.bing.net/th?id=OIP.0GMqi7qG3-x8FFqro1Jt9gEsDI&pid=15.1&P=0&w=300&h=300", "belong_city": "renens", "lat": "46.528765032068", "belong_city_id": "c311991", "_id": {"$oid": "5905e52e78b83736b0db7088"}, "slug": "lausanne-hockey-club"}
{"name": "» Renens «", "lon": "6.5818012975719", "id": "51041", "image_url": "https://tse3.mm.bing.net/th?id=OIP.7E-7rIBCub8J8L5l-s5rlADuEs&pid=15.1&P=0&w=300&h=300", "belong_city": "renens", "lat": "46.538277290011", "belong_city_id": "c311991", "_id": {"$oid": "5905e52e78b83736b0db7089"}, "slug": "renens"}
{"name": "Vallée de la Jeunesse", "lon": "6.60534673", "id": "318682705", "image_url": "https://tse3.mm.bing.net/th?id=OIP.CMayBrgX90oo-vI_ygykdQEsDH&pid=15.1&P=0&w=300&h=300", "belong_city": "renens", "lat": "46.52228301", "belong_city_id": "c311991", "_id": {"$oid": "5905e52e78b83736b0db708a"}, "slug": "vallee-de-la-jeunesse"}
{"name": "Zvicer", "lon": "6.59133061341", "id": "259825937", "image_url": "https://tse4.mm.bing.net/th?id=OIP.bCfuigsdOG9VWkUTKlJmFQEsEs&pid=15.1&P=0&w=300&h=300", "belong_city": "renens", "lat": "46.5334389962", "belong_city_id": "c311991", "_id": {"$oid": "5905e52e78b83736b0db708b"}, "slug": "zvicer"}
{"name": "Prilly", "lon": "6.6066580857285", "id": "1070174", "image_url": "https://tse1.mm.bing.net/th?id=OIP.Uymj1JafPGRNx7rAS2OB0AEsEs&pid=15.1&P=0&w=300&h=300", "belong_city": "renens", "lat": "46.533838529691", "belong_city_id": "c311991", "_id": {"$oid": "5905e52e78b83736b0db708c"}, "slug": "prilly"}
{"name": "Renens CFF station", "lon": "6.578889", "id": "218729260", "image_url": "https://tse3.mm.bing.net/th?id=OIP.zm66INnpfVXudC_iTdYmBQEsDh&pid=15.1&P=0&w=300&h=300", "belong_city": "renens", "lat": "46.536944", "belong_city_id": "c311991", "_id": {"$oid": "5905e52e78b83736b0db708d"}, "slug": "renens-cff-station"}
{"name": "Lausanne (Renens)", "lon": "6.5957746190494", "id": "216404441", "image_url": "https://tse1.mm.bing.net/th?id=OIP.zm66INnpfVXudC_iTdYmBQEsDh&pid=15.1&P=0&w=300&h=300", "belong_city": "renens", "lat": "46.538444539414", "belong_city_id": "c311991", "_id": {"$oid": "5905e52e78b83736b0db708e"}, "slug": "lausanne-renens"}
{"name": "Centre sportif de Malley", "lon": "6.6002934663413", "id": "218628140", "image_url": "https://tse1.mm.bing.net/th?id=OIP.EwIPNtHDWk0iIIwixR7t9QEsDL&pid=15.1&P=0&w=300&h=300", "belong_city": "renens", "lat": "46.52864852664", "belong_city_id": "c311991", "_id": {"$oid": "5905e52e78b83736b0db708f"}, "slug": "centre-sportif-de-malley"}
{"name": "La Galicienne", "lon": "6.60288", "id": "1035031054", "image_url": "https://tse2.mm.bing.net/th?id=OIP.YAde06Yu678MXlNFAmtWtwEsEs&pid=15.1&P=0&w=300&h=300", "belong_city": "renens", "lat": "46.5273899", "belong_city_id": "c311991", "_id": {"$oid": "5905e52e78b83736b0db7090"}, "slug": "la-galicienne"}
{"name": "Prilly Centre", "lon": "6.60612", "id": "573257692857948", "image_url": "https://tse4.mm.bing.net/th?id=OIP.Pu49oERq3dDpPqqQPJn6nAEsDd&pid=15.1&P=0&w=300&h=300", "belong_city": "renens", "lat": "46.5342", "belong_city_id": "c311991", "_id": {"$oid": "5905e52e78b83736b0db7091"}, "slug": "prilly-centre"}
{"name": "Morges Bord Du Lac", "lon": "6.6048062574803", "id": "256304324", "image_url": "https://tse1.mm.bing.net/th?id=OIP.OjFjFcFZOj7Xaqo2s3gRTQEsDg&pid=15.1&P=0&w=300&h=300", "belong_city": "renens", "lat": "46.532390134799", "belong_city_id": "c311991", "_id": {"$oid": "5905e52e78b83736b0db7092"}, "slug": "morges-bord-du-lac"}
{"name": "Losanne", "lon": "6.5875331887974", "id": "238907436", "image_url": "https://tse1.mm.bing.net/th?id=OIP.nDb_J1GHVxMmu9yeteP8WQEsDI&pid=15.1&P=0&w=300&h=300", "belong_city": "renens", "lat": "46.540195451109", "belong_city_id": "c311991", "_id": {"$oid": "5905e52e78b83736b0db7093"}, "slug": "losanne"}
{"name": "Bourdonnette", "lon": "6.58871", "id": "9055075", "image_url": "https://tse1.mm.bing.net/th?id=OIP.0798_aQP6m6l4RcWCCMmjAEsDI&pid=15.1&P=0&w=300&h=300", "belong_city": "renens", "lat": "46.52419", "belong_city_id": "c311991", "_id": {"$oid": "5905e52e78b83736b0db7094"}, "slug": "bourdonnette"}
{"name": "À Renens City.", "lon": "6.5890368484598", "id": "862110134", "image_url": "https://tse3.mm.bing.net/th?id=OIP.NDSwaBZ-Tqjdk-neJ4JtowEsDI&pid=15.1&P=0&w=300&h=300", "belong_city": "renens", "lat": "46.535604131707", "belong_city_id": "c311991", "_id": {"$oid": "5905e52e78b83736b0db7095"}, "slug": "a-renens-city"}
{"name": "La Nébuleuse", "lon": "6.59129", "id": "697085291", "image_url": "https://tse1.mm.bing.net/th?id=OIP.aFjjGVawJWqiacr-dtBN6gD5Es&pid=15.1&P=0&w=300&h=300", "belong_city": "renens", "lat": "46.53237", "belong_city_id": "c311991", "_id": {"$oid": "5905e52e78b83736b0db7096"}, "slug": "la-nebuleuse"}
{"name": "Lausanne Renes", "lon": "6.5814049317372", "id": "356148388", "image_url": "https://tse2.mm.bing.net/th?id=OIP.jki1kJuMkLwSBl-8D2uqZgEsEs&pid=15.1&P=0&w=300&h=300", "belong_city": "renens", "lat": "46.535117551995", "belong_city_id": "c311991", "_id": {"$oid": "5905e52e78b83736b0db7097"}, "slug": "lausanne-renes"}
{"name": "A Prilly", "lon": "6.5982346", "id": "923532712", "image_url": "https://tse4.mm.bing.net/th?id=OIP.9zY-eRk0QS5OHPzOdTpEVAEsEs&pid=15.1&P=0&w=300&h=300", "belong_city": "renens", "lat": "46.53907342", "belong_city_id": "c311991", "_id": {"$oid": "5905e52e78b83736b0db7098"}, "slug": "a-prilly"}
{"name": "Prilly-Malley, Switzerland", "lon": "6.6039671947907", "id": "584404702", "image_url": "https://tse3.mm.bing.net/th?id=OIP.j7aFI1ApUGAw1KcbYA_OBwEsDh&pid=15.1&P=0&w=300&h=300", "belong_city": "renens", "lat": "46.527818724178", "belong_city_id": "c311991", "_id": {"$oid": "5905e52e78b83736b0db7099"}, "slug": "prilly-malley-switzerland"}
{"name": "LE ZOO - MAD Club", "lon": "6.60743584", "id": "388359742", "image_url": "https://tse3.mm.bing.net/th?id=OIP.qFZEMpEwnPXumSkkrsNfKAEsDH&pid=15.1&P=0&w=300&h=300", "belong_city": "renens", "lat": "46.52937038", "belong_city_id": "c311991", "_id": {"$oid": "5905e52e78b83736b0db709a"}, "slug": "le-zoo-mad-club"}
{"name": "BB Grill - Renens", "lon": "6.58838", "id": "264171445", "image_url": "https://tse2.mm.bing.net/th?id=OIP.WXbehrTZV4ggvxO0IT49bQEsDg&pid=15.1&P=0&w=300&h=300", "belong_city": "renens", "lat": "46.53203", "belong_city_id": "c311991", "_id": {"$oid": "5905e52e78b83736b0db709b"}, "slug": "bb-grill-renens"}
{"name": "Cimetiere Du Bois De Vaux", "lon": "6.59659385", "id": "8701918", "image_url": "https://tse4.mm.bing.net/th?id=OIP.RKPicbb50LE3V5CgrnMFzwEsDh&pid=15.1&P=0&w=300&h=300", "belong_city": "renens", "lat": "46.52172631", "belong_city_id": "c311991", "_id": {"$oid": "5905e52e78b83736b0db709c"}, "slug": "cimetiere-du-bois-de-vaux"}
{"name": "Swiss Alps", "lon": "6.6078517935153", "id": "289311527", "image_url": "https://c1.staticflickr.com/6/5005/5351949161_9a6de97e8c_n.jpg", "belong_city": "renens", "lat": "46.53472742368", "belong_city_id": "c311991", "_id": {"$oid": "5905e52e78b83736b0db709d"}, "slug": "swiss-alps"}
{"name": "HEC Lausanne", "lon": "6.5841794013977", "id": "281645146", "image_url": "https://tse4.mm.bing.net/th?id=OIP.WB9MrOIqA9Q7Qt_jUG4zdwEsCh&pid=15.1&P=0&w=300&h=300", "belong_city": "renens", "lat": "46.521474310912", "belong_city_id": "c311991", "_id": {"$oid": "5905e52e78b83736b0db709e"}, "slug": "hec-lausanne"}
{"name": "Vallée de la Jeunesse", "lon": "6.604703", "id": "1026772412", "image_url": "https://tse3.mm.bing.net/th?id=OIP.CMayBrgX90oo-vI_ygykdQEsDH&pid=15.1&P=0&w=300&h=300", "belong_city": "renens", "lat": "46.521061", "belong_city_id": "c311991", "_id": {"$oid": "5905e52e78b83736b0db709f"}, "slug": "vallee-de-la-jeunesse"}
{"name": "Lets Go Fitness", "lon": "6.6009228", "id": "1030423700", "image_url": "https://tse2.mm.bing.net/th?id=OIP.WJ8-9KBJXY1zghmCX6oU1gEsCk&pid=15.1&P=0&w=300&h=300", "belong_city": "renens", "lat": "46.5293767", "belong_city_id": "c311991", "_id": {"$oid": "5905e52e78b83736b0db70a0"}, "slug": "lets-go-fitness"}
{"name": "Gare de Renens", "lon": "6.5791969061357", "id": "30062", "image_url": "https://tse3.mm.bing.net/th?id=OIP.obuS7q_QMxN2WTB6I_7E_wEYDP&pid=15.1&P=0&w=300&h=300", "belong_city": "renens", "lat": "46.537035532523", "belong_city_id": "c311991", "_id": {"$oid": "5905e52e78b83736b0db70a1"}, "slug": "gare-de-renens"}
{"name": "Winterthur, Switzerland", "lon": "8.75", "id": "234972236", "image_url": "https://tse2.mm.bing.net/th?id=OIP.KjzSQeifVeOWlH8zhv8zigDIEs&pid=15.1&P=0&w=300&h=300", "belong_city": "winterthur", "lat": "47.5", "belong_city_id": "c312970", "_id": {"$oid": "5905e52e78b83736b0db70a2"}, "slug": "winterthur-switzerland"}
{"name": "Kunstmuseum Winterthur", "lon": "8.7302876520572", "id": "5416699", "image_url": "https://tse1.mm.bing.net/th?id=OIP.-O73cTfMTDm1u-aIvtPvlwEsDI&pid=15.1&P=0&w=300&h=300", "belong_city": "winterthur", "lat": "47.501608730485", "belong_city_id": "c312970", "_id": {"$oid": "5905e52e78b83736b0db70a3"}, "slug": "kunstmuseum-winterthur"}
{"name": "Wintentur", "lon": "8.75013812", "id": "561704306", "image_url": "https://tse2.mm.bing.net/th?id=OIP.u4Jf7iHSzS6ghHCXFHYHpgEsCW&pid=15.1&P=0&w=300&h=300", "belong_city": "winterthur", "lat": "47.502280208333", "belong_city_id": "c312970", "_id": {"$oid": "5905e52e78b83736b0db70a4"}, "slug": "wintentur"}
{"name": "Winterthurer-Musikfestwochen - Steinberggasse", "lon": "8.7288951873779", "id": "297452860", "image_url": "https://s.yimg.com/kx/yucs/uh3s/promo-ff/1/images/ff_icon-compressed.png", "belong_city": "winterthur", "lat": "47.498343422524", "belong_city_id": "c312970", "_id": {"$oid": "5905e52e78b83736b0db70a5"}, "slug": "winterthurer-musikfestwochen-steinberggasse"}
{"name": "Gilgamesh - Shisha Bar & Lounge", "lon": "8.725245638294", "id": "9218023", "image_url": "https://tse2.mm.bing.net/th?id=OIP.7LJvTMUvDuR2lsnYOL4sYwEsDh&pid=15.1&P=0&w=300&h=300", "belong_city": "winterthur", "lat": "47.499811683512", "belong_city_id": "c312970", "_id": {"$oid": "5905e52e78b83736b0db70a6"}, "slug": "gilgamesh-shisha-bar-lounge"}
{"name": "Fotomuseum Winterthur", "lon": "8.7380426811987", "id": "1549733", "image_url": "https://tse2.mm.bing.net/th?id=OIP.OLoztbvM_FYn6PDRFMWZcgEsDY&pid=15.1&P=0&w=300&h=300", "belong_city": "winterthur", "lat": "47.495887987764", "belong_city_id": "c312970", "_id": {"$oid": "5905e52e78b83736b0db70a7"}, "slug": "fotomuseum-winterthur"}
{"name": "Goldenberg", "lon": "8.7430745860298", "id": "2593458", "image_url": "https://tse1.mm.bing.net/th?id=OIP.jaKRssNL6avYh0xSi1rkyQEZEs&pid=15.1&P=0&w=300&h=300", "belong_city": "winterthur", "lat": "47.504897484072", "belong_city_id": "c312970", "_id": {"$oid": "5905e52e78b83736b0db70a8"}, "slug": "goldenberg"}
{"name": "Winterthur Marktgasse", "lon": "8.7262123231636", "id": "236952658", "image_url": "https://tse4.mm.bing.net/th?id=OIP.QhZvpAFT9ILGHuTTCrf4gwEsDV&pid=15.1&P=0&w=300&h=300", "belong_city": "winterthur", "lat": "47.498903700538", "belong_city_id": "c312970", "_id": {"$oid": "5905e52e78b83736b0db70a9"}, "slug": "winterthur-marktgasse"}
{"name": "Oberi Video", "lon": "8.755315745", "id": "982111661", "image_url": "https://tse4.mm.bing.net/th?id=OIP.o3R6AZH5pADL84Xy-6-dUwEsDI&pid=15.1&P=0&w=300&h=300", "belong_city": "winterthur", "lat": "47.5076287325", "belong_city_id": "c312970", "_id": {"$oid": "5905e52e78b83736b0db70aa"}, "slug": "oberi-video"}
{"name": "Zielbau Arena", "lon": "8.74833", "id": "1016730191", "image_url": "https://tse3.mm.bing.net/th?id=OIP.uFRAkf6f6X_CxbTKof_HwQEsDh&pid=15.1&P=0&w=300&h=300", "belong_city": "winterthur", "lat": "47.4953", "belong_city_id": "c312970", "_id": {"$oid": "5905e52e78b83736b0db70ab"}, "slug": "zielbau-arena"}
{"name": "Theater Winterthur", "lon": "8.7276252662097", "id": "61782", "image_url": "https://tse3.mm.bing.net/th?id=OIP.cZgeR8J7lD4kCLYdKoSh8gEsCh&pid=15.1&P=0&w=300&h=300", "belong_city": "winterthur", "lat": "47.501802868916", "belong_city_id": "c312970", "_id": {"$oid": "5905e52e78b83736b0db70ac"}, "slug": "theater-winterthur"}
{"name": "ZHAW School of Management and Law", "lon": "8.7265153081263", "id": "2085884", "image_url": "https://tse2.mm.bing.net/th?id=OIP.gFocIDQkHIk6bGhzqLHwiAEsBf&pid=15.1&P=0&w=300&h=300", "belong_city": "winterthur", "lat": "47.502172072487", "belong_city_id": "c312970", "_id": {"$oid": "5905e52e78b83736b0db70ad"}, "slug": "zhaw-school-of-management-and-law"}
{"name": "Oberwinterthur", "lon": "8.75723", "id": "1027507771", "image_url": "https://tse1.mm.bing.net/th?id=OIP.fjTviCDZuoVyTMdbJ8pd5gEsCp&pid=15.1&P=0&w=300&h=300", "belong_city": "winterthur", "lat": "47.49826", "belong_city_id": "c312970", "_id": {"$oid": "5905e52e78b83736b0db70ae"}, "slug": "oberwinterthur"}
{"name": "Steinberggasse Winterthur", "lon": "8.72833", "id": "265173820", "image_url": "https://tse1.mm.bing.net/th?id=OIP.RjSyFGqvy4z-oY9xfqQiuQEsCp&pid=15.1&P=0&w=300&h=300", "belong_city": "winterthur", "lat": "47.49827", "belong_city_id": "c312970", "_id": {"$oid": "5905e52e78b83736b0db70af"}, "slug": "steinberggasse-winterthur"}
{"name": "Casinotheater Winterthur", "lon": "8.7264722587604", "id": "4507730", "image_url": "https://tse2.mm.bing.net/th?id=OIP.XDl-XSh3L9JB8D506n-TNQDvEs&pid=15.1&P=0&w=300&h=300", "belong_city": "winterthur", "lat": "47.499799148501", "belong_city_id": "c312970", "_id": {"$oid": "5905e52e78b83736b0db70b0"}, "slug": "casinotheater-winterthur"}
{"name": "Albanifäst Winti", "lon": "8.7250767750688", "id": "320458929", "image_url": "https://tse2.mm.bing.net/th?id=OIP.h3ZP8d1huDPsGoQuJu-89wEsEs&pid=15.1&P=0&w=300&h=300", "belong_city": "winterthur", "lat": "47.499260339511", "belong_city_id": "c312970", "_id": {"$oid": "5905e52e78b83736b0db70b1"}, "slug": "albanifast-winti"}
{"name": "Winterthur Altstadt", "lon": "8.7295694107336", "id": "15378317", "image_url": "https://s.yimg.com/kx/yucs/uh3s/promo-ff/1/images/ff_icon-compressed.png", "belong_city": "winterthur", "lat": "47.498372584213", "belong_city_id": "c312970", "_id": {"$oid": "5905e52e78b83736b0db70b2"}, "slug": "winterthur-altstadt"}
{"name": "2nd Skin Tattoo & Piercing Winterthur", "lon": "8.72923", "id": "1015769071", "image_url": "https://tse2.mm.bing.net/th?id=OIP.4plvHrqnpjC_AdzUtjffpwEsEa&pid=15.1&P=0&w=300&h=300", "belong_city": "winterthur", "lat": "47.49982", "belong_city_id": "c312970", "_id": {"$oid": "5905e52e78b83736b0db70b3"}, "slug": "2nd-skin-tattoo-piercing-winterthur"}
{"name": "Stadtpark Winterthur", "lon": "8.7288840096267", "id": "14786018", "image_url": "https://tse2.mm.bing.net/th?id=OIP.wlug1Eey7P7UluA-lJ1ywwEsCW&pid=15.1&P=0&w=300&h=300", "belong_city": "winterthur", "lat": "47.500758364592", "belong_city_id": "c312970", "_id": {"$oid": "5905e52e78b83736b0db70b4"}, "slug": "stadtpark-winterthur"}
{"name": "Voando pelo mundo", "lon": "8.75", "id": "582542601", "image_url": "https://tse1.mm.bing.net/th?id=OIP.AyfuAy-42XAxj6xUoy9TqwEsCv&pid=15.1&P=0&w=300&h=300", "belong_city": "winterthur", "lat": "47.5", "belong_city_id": "c312970", "_id": {"$oid": "5905e52e78b83736b0db70b5"}, "slug": "voando-pelo-mundo"}
{"name": "Fotomuseum Winterthur", "lon": "8.7390194444444", "id": "238201264", "image_url": "https://tse2.mm.bing.net/th?id=OIP.OLoztbvM_FYn6PDRFMWZcgEsDY&pid=15.1&P=0&w=300&h=300", "belong_city": "winterthur", "lat": "47.496019444444", "belong_city_id": "c312970", "_id": {"$oid": "5905e52e78b83736b0db70b6"}, "slug": "fotomuseum-winterthur"}
{"name": "Imperial Disco Club", "lon": "8.725142292091", "id": "414322555", "image_url": "https://tse3.mm.bing.net/th?id=OIP.Z6WR1oMeIENjdSeons1sbwEsCo&pid=15.1&P=0&w=300&h=300", "belong_city": "winterthur", "lat": "47.498411966667", "belong_city_id": "c312970", "_id": {"$oid": "5905e52e78b83736b0db70b7"}, "slug": "imperial-disco-club"}
{"name": "Oktoberfest Winterthur", "lon": "8.7324245447153", "id": "435718628", "image_url": "https://tse4.mm.bing.net/th?id=OIP.Kii4McVGzfNmwrnCfb9QsgEsDH&pid=15.1&P=0&w=300&h=300", "belong_city": "winterthur", "lat": "47.495157377505", "belong_city_id": "c312970", "_id": {"$oid": "5905e52e78b83736b0db70b8"}, "slug": "oktoberfest-winterthur"}
{"name": "Winti-Arena Public Viewing", "lon": "8.7319004535675", "id": "305879043", "image_url": "https://tse4.mm.bing.net/th?id=OIP.qrFSm3ZFeBQC0CIJfAutBgEsDI&pid=15.1&P=0&w=300&h=300", "belong_city": "winterthur", "lat": "47.495980665705", "belong_city_id": "c312970", "_id": {"$oid": "5905e52e78b83736b0db70b9"}, "slug": "winti-arena-public-viewing"}
{"name": "Platinum Cars GmbH", "lon": "8.75277", "id": "1034780034", "image_url": "https://tse1.mm.bing.net/th?id=OIP.iEK3YFNh1hYA9ohRLtbdiAEsCW&pid=15.1&P=0&w=300&h=300", "belong_city": "winterthur", "lat": "47.50067", "belong_city_id": "c312970", "_id": {"$oid": "5905e52e78b83736b0db70ba"}, "slug": "platinum-cars-gmbh"}
{"name": "Kantonsspital Winterthur KSW", "lon": "8.7280598", "id": "282133360", "image_url": "https://tse1.mm.bing.net/th?id=OIP.uHqW0JE1ujH2EVICRGTlgwEsDB&pid=15.1&P=0&w=300&h=300", "belong_city": "winterthur", "lat": "47.5074387", "belong_city_id": "c312970", "_id": {"$oid": "5905e52e78b83736b0db70bb"}, "slug": "kantonsspital-winterthur-ksw"}
{"name": "FLAG CAP STORE", "lon": "8.7276816698716", "id": "437848654", "image_url": "https://tse2.mm.bing.net/th?id=OIP.R2mImynz0_zOH4u7uPRVggEsEs&pid=15.1&P=0&w=300&h=300", "belong_city": "winterthur", "lat": "47.49915925856", "belong_city_id": "c312970", "_id": {"$oid": "5905e52e78b83736b0db70bc"}, "slug": "flag-cap-store"}
{"name": "Reflection Bar & Bistro", "lon": "8.72799", "id": "1034224508", "image_url": "https://tse4.mm.bing.net/th?id=OIP.Mvb0yye7Cqo8jIwRCdkunwEsDI&pid=15.1&P=0&w=300&h=300", "belong_city": "winterthur", "lat": "47.4987", "belong_city_id": "c312970", "_id": {"$oid": "5905e52e78b83736b0db70bd"}, "slug": "reflection-bar-bistro"}
{"name": "Tibits Winterthur", "lon": "8.7311028654167", "id": "1773691", "image_url": "https://tse4.mm.bing.net/th?id=OIP.dLU0SvudQHzVyL_QJZcXcgEsDK&pid=15.1&P=0&w=300&h=300", "belong_city": "winterthur", "lat": "47.499978716111", "belong_city_id": "c312970", "_id": {"$oid": "5905e52e78b83736b0db70be"}, "slug": "tibits-winterthur"}
{"name": "Bfs Winterthur", "lon": "8.7338828472059", "id": "503111098", "image_url": "https://tse4.mm.bing.net/th?id=OIP.f1ZWPNe09IVwE9x-Gz4WXwEsDh&pid=15.1&P=0&w=300&h=300", "belong_city": "winterthur", "lat": "47.497100265294", "belong_city_id": "c312970", "_id": {"$oid": "5905e52e78b83736b0db70bf"}, "slug": "bfs-winterthur"}
{"name": "Hotel Banana City - Winterthur", "lon": "8.72554", "id": "270697928", "image_url": "https://tse1.mm.bing.net/th?id=OIP.ICKKCX2OVWZVrHo3or8paQEsDI&pid=15.1&P=0&w=300&h=300", "belong_city": "winterthur", "lat": "47.50407", "belong_city_id": "c312970", "_id": {"$oid": "5905e52e78b83736b0db70c0"}, "slug": "hotel-banana-city-winterthur"}
{"name": "Eishalle Winterthur", "lon": "8.7480453792077", "id": "247107850", "image_url": "https://tse1.mm.bing.net/th?id=OIP.BM5NweiOTxD7r3o1RSogEQEsCW&pid=15.1&P=0&w=300&h=300", "belong_city": "winterthur", "lat": "47.495249293595", "belong_city_id": "c312970", "_id": {"$oid": "5905e52e78b83736b0db70c1"}, "slug": "eishalle-winterthur"}
{"name": "Park Hotel Winterthur / Bloom", "lon": "8.7327244385951", "id": "286563483", "image_url": "https://tse3.mm.bing.net/th?id=OIP.n2ZqHsD-Te3132lG12F50gEsDf&pid=15.1&P=0&w=300&h=300", "belong_city": "winterthur", "lat": "47.500916514426", "belong_city_id": "c312970", "_id": {"$oid": "5905e52e78b83736b0db70c2"}, "slug": "park-hotel-winterthur-bloom"}
{"name": "Outwear Store Winterthur", "lon": "8.73054", "id": "565667128", "image_url": "https://tse4.mm.bing.net/th?id=OIP.J1Y_3CEErpIfYabA6auwpAEsDI&pid=15.1&P=0&w=300&h=300", "belong_city": "winterthur", "lat": "47.49897", "belong_city_id": "c312970", "_id": {"$oid": "5905e52e78b83736b0db70c3"}, "slug": "outwear-store-winterthur"}
{"name": "In der Küche.", "lon": "8.7528189", "id": "719023236", "image_url": "https://tse2.mm.bing.net/th?id=OIP.8SZpqg8B9IkpIWh4LKX8CADUEs&pid=15.1&P=0&w=300&h=300", "belong_city": "winterthur", "lat": "47.5057915", "belong_city_id": "c312970", "_id": {"$oid": "5905e52e78b83736b0db70c4"}, "slug": "in-der-kuche"}
{"name": "Winthetur Swizerland", "lon": "8.7503922833333", "id": "318239790", "image_url": "https://tse1.mm.bing.net/th?id=OIP.l7WSn39F20HHrQAjpJ8ilgEsCo&pid=15.1&P=0&w=300&h=300", "belong_city": "winterthur", "lat": "47.494452383333", "belong_city_id": "c312970", "_id": {"$oid": "5905e52e78b83736b0db70c5"}, "slug": "winthetur-swizerland"}
{"name": "Tres Amigos Winterthur", "lon": "8.7270315139298", "id": "1804863", "image_url": "https://tse1.mm.bing.net/th?id=OIP.4kOW5yop8uqNS0FrSKb2fAD6D6&pid=15.1&P=0&w=300&h=300", "belong_city": "winterthur", "lat": "47.500771174026", "belong_city_id": "c312970", "_id": {"$oid": "5905e52e78b83736b0db70c6"}, "slug": "tres-amigos-winterthur"}
{"name": "Aussichtspunkt Goldenberg", "lon": "8.743625", "id": "234830565", "image_url": "https://tse2.mm.bing.net/th?id=OIP.wlgL_JZ63GMA-jesszbkXwEsDh&pid=15.1&P=0&w=300&h=300", "belong_city": "winterthur", "lat": "47.504302", "belong_city_id": "c312970", "_id": {"$oid": "5905e52e78b83736b0db70c7"}, "slug": "aussichtspunkt-goldenberg"}
{"name": "ZHAW School of Engineering", "lon": "8.72935", "id": "269848601", "image_url": "https://s.yimg.com/kx/yucs/uh3s/promo-ff/1/images/ff_icon-compressed.png", "belong_city": "winterthur", "lat": "47.49728", "belong_city_id": "c312970", "_id": {"$oid": "5905e52e78b83736b0db70c8"}, "slug": "zhaw-school-of-engineering"}
{"name": "Albani Music Club Winterthur", "lon": "8.7292174457743", "id": "388111652", "image_url": "https://tse1.mm.bing.net/th?id=OIP.Ag6htvFTkSufV09xInOiwgEsCW&pid=15.1&P=0&w=300&h=300", "belong_city": "winterthur", "lat": "47.498352809778", "belong_city_id": "c312970", "_id": {"$oid": "5905e52e78b83736b0db70c9"}, "slug": "albani-music-club-winterthur"}
{"name": "Fritz Lambada", "lon": "8.72761", "id": "247867625547553", "image_url": "https://tse2.mm.bing.net/th?id=OIP.RQSyzDrHvGrSGmlK5AcyvQEsCI&pid=15.1&P=0&w=300&h=300", "belong_city": "winterthur", "lat": "47.50366", "belong_city_id": "c312970", "_id": {"$oid": "5905e52e78b83736b0db70ca"}, "slug": "fritz-lambada"}
{"name": "Goldenberg, Winterthur", "lon": "8.7433581455263", "id": "255591281", "image_url": "https://tse3.mm.bing.net/th?id=OIP.tPQ1zqKVB6hBagRPNsFgjgEsCW&pid=15.1&P=0&w=300&h=300", "belong_city": "winterthur", "lat": "47.504619653575", "belong_city_id": "c312970", "_id": {"$oid": "5905e52e78b83736b0db70cb"}, "slug": "goldenberg-winterthur"}
{"name": "Internationale Kurzfilmtage Winterthur", "lon": "8.7271414240738", "id": "437095835", "image_url": "https://tse1.mm.bing.net/th?id=OIP.tUFekEJfn0klA0ogvTWU2QEsB6&pid=15.1&P=0&w=300&h=300", "belong_city": "winterthur", "lat": "47.499661975163", "belong_city_id": "c312970", "_id": {"$oid": "5905e52e78b83736b0db70cc"}, "slug": "internationale-kurzfilmtage-winterthur"}
{"name": "1000 miles away", "lon": "8.73406", "id": "1004566621", "image_url": "https://tse2.mm.bing.net/th?id=OIP.TgdH_sHVjJB3nPUoRNq9uQEsEs&pid=15.1&P=0&w=300&h=300", "belong_city": "winterthur", "lat": "47.49007", "belong_city_id": "c312970", "_id": {"$oid": "5905e52e78b83736b0db70cd"}, "slug": "1000-miles-away"}
{"name": "Fitnesspark Banane Winterthur", "lon": "8.72562", "id": "430352219", "image_url": "https://tse1.mm.bing.net/th?id=OIP.caux6YY9EZDuhql2EByL1wEsCo&pid=15.1&P=0&w=300&h=300", "belong_city": "winterthur", "lat": "47.5046899", "belong_city_id": "c312970", "_id": {"$oid": "5905e52e78b83736b0db70ce"}, "slug": "fitnesspark-banane-winterthur"}
{"name": "Hangar 11 Club / Winterthur", "lon": "8.74563", "id": "437227198", "image_url": "https://tse2.mm.bing.net/th?id=OIP.IuIx72EZHUj0erahoxOuHQEsCs&pid=15.1&P=0&w=300&h=300", "belong_city": "winterthur", "lat": "47.49927", "belong_city_id": "c312970", "_id": {"$oid": "5905e52e78b83736b0db70cf"}, "slug": "hangar-11-club-winterthur"}
{"name": "La Cyma", "lon": "8.7321239200131", "id": "52092020", "image_url": "https://tse2.mm.bing.net/th?id=OIP.5CnnKGUWQSF2MZ1kGl2YWgDfEs&pid=15.1&P=0&w=300&h=300", "belong_city": "winterthur", "lat": "47.498330341922", "belong_city_id": "c312970", "_id": {"$oid": "5905e52e78b83736b0db70d0"}, "slug": "la-cyma"}
{"name": "Winterthurer Musikfestwochen", "lon": "8.72840498", "id": "4412985", "image_url": "https://tse1.mm.bing.net/th?id=OIP.1x8vf34FP1zJkawBpt9M7AEsDS&pid=15.1&P=0&w=300&h=300", "belong_city": "winterthur", "lat": "47.49829342", "belong_city_id": "c312970", "_id": {"$oid": "5905e52e78b83736b0db70d1"}, "slug": "winterthurer-musikfestwochen"}
{"name": "Wintherthur", "lon": "8.7110381834927", "id": "370829530", "image_url": "https://tse2.mm.bing.net/th?id=OIP.u4Jf7iHSzS6ghHCXFHYHpgEsCW&pid=15.1&P=0&w=300&h=300", "belong_city": "winterthur töss", "lat": "47.484495633752", "belong_city_id": "c312969", "_id": {"$oid": "5905e52e78b83736b0db70d2"}, "slug": "wintherthur"}
{"name": "Winterthur Dättnau", "lon": "8.7006767075", "id": "248421989", "image_url": "https://tse3.mm.bing.net/th?id=OIP.Fmlh7njG2CcqXKJFGg_mXgEsC3&pid=15.1&P=0&w=300&h=300", "belong_city": "winterthur töss", "lat": "47.47958892", "belong_city_id": "c312969", "_id": {"$oid": "5905e52e78b83736b0db70d3"}, "slug": "winterthur-dattnau"}
{"name": "Zentrum-Töss", "lon": "8.70608", "id": "31455944", "image_url": "https://tse1.mm.bing.net/th?id=OIP.sNrcHJ5TWFC6IvQC6IO4FwEsDh&pid=15.1&P=0&w=300&h=300", "belong_city": "winterthur töss", "lat": "47.4916", "belong_city_id": "c312969", "_id": {"$oid": "5905e52e78b83736b0db70d4"}, "slug": "zentrum-toss"}
{"name": "Neueschwanstein Schloss", "lon": "8.7001717", "id": "457471183", "image_url": "https://tse4.mm.bing.net/th?id=OIP.xCDfT7EkFnKsA0TiEuAOsgEsDH&pid=15.1&P=0&w=300&h=300", "belong_city": "winterthur töss", "lat": "47.4943003", "belong_city_id": "c312969", "_id": {"$oid": "5905e52e78b83736b0db70d5"}, "slug": "neueschwanstein-schloss"}
{"name": "Kimsesizler Ülkesi", "lon": "8.70750695", "id": "1015078299", "image_url": "https://tse4.mm.bing.net/th?id=OIP.yaGB-jnTIhtEt4ne2j8QqgD6D6&pid=15.1&P=0&w=300&h=300", "belong_city": "winterthur töss", "lat": "47.47622785", "belong_city_id": "c312969", "_id": {"$oid": "5905e52e78b83736b0db70d6"}, "slug": "kimsesizler-ulkesi"}
{"name": "Säntis Berg Schweiz", "lon": "8.6995396432953", "id": "521130130", "image_url": "https://tse1.mm.bing.net/th?id=OIP.nVJQp8dROL3N9ZcKJSZhHAEsDH&pid=15.1&P=0&w=300&h=300", "belong_city": "winterthur töss", "lat": "47.479910214403", "belong_city_id": "c312969", "_id": {"$oid": "5905e52e78b83736b0db70d7"}, "slug": "santis-berg-schweiz"}
{"name": "Zurick City", "lon": "8.70578335513", "id": "270039175", "image_url": "https://tse2.mm.bing.net/th?id=OIP.Vq4zTrvWtWbsNw7Xh3Nm4wEsC7&pid=15.1&P=0&w=300&h=300", "belong_city": "winterthur töss", "lat": "47.4908785516", "belong_city_id": "c312969", "_id": {"$oid": "5905e52e78b83736b0db70d8"}, "slug": "zurick-city"}
{"name": "Schwimmbad Töss", "lon": "8.7056799", "id": "28849161", "image_url": "https://tse1.mm.bing.net/th?id=OIP.u9zlOimtZFQ6BhuRG-F15QEsDh&pid=15.1&P=0&w=300&h=300", "belong_city": "winterthur töss", "lat": "47.48307", "belong_city_id": "c312969", "_id": {"$oid": "5905e52e78b83736b0db70d9"}, "slug": "schwimmbad-toss"}
{"name": "FirstGym24 - Winterthur", "lon": "8.7040997", "id": "1021184062", "image_url": "https://tse2.mm.bing.net/th?id=OIP.9NRJsJqJUgNHOVr1OOL54wEAEA&pid=15.1&P=0&w=300&h=300", "belong_city": "winterthur töss", "lat": "47.4764519", "belong_city_id": "c312969", "_id": {"$oid": "5905e52e78b83736b0db70da"}, "slug": "firstgym24-winterthur"}
{"name": "Royal Mangal", "lon": "8.7041", "id": "287968927", "image_url": "https://tse1.mm.bing.net/th?id=OIP.18YD9JOkG-xeGwpBGjT5BQEsCi&pid=15.1&P=0&w=300&h=300", "belong_city": "winterthur töss", "lat": "47.47645", "belong_city_id": "c312969", "_id": {"$oid": "5905e52e78b83736b0db70db"}, "slug": "royal-mangal"}
{"name": "Millenium Beauty & Nails", "lon": "8.7038", "id": "1027154514", "image_url": "https://tse3.mm.bing.net/th?id=OIP.UIC88dfdpX9za3B7cbp48gEsDh&pid=15.1&P=0&w=300&h=300", "belong_city": "winterthur töss", "lat": "47.48943", "belong_city_id": "c312969", "_id": {"$oid": "5905e52e78b83736b0db70dc"}, "slug": "millenium-beauty-nails"}
{"name": "Töss Fluss", "lon": "8.7088380055849", "id": "283162085", "image_url": "https://tse1.mm.bing.net/th?id=OIP.9lcKLHs51KZzL609kNroYAEsDM&pid=15.1&P=0&w=300&h=300", "belong_city": "winterthur töss", "lat": "47.481081736777", "belong_city_id": "c312969", "_id": {"$oid": "5905e52e78b83736b0db70dd"}, "slug": "toss-fluss"}
{"name": "Sehzade Shisha Winterthur", "lon": "8.70608", "id": "560203795", "belong_city": "winterthur töss", "lat": "47.4916", "belong_city_id": "c312969", "_id": {"$oid": "5905e52e78b83736b0db70de"},