{"lon": "8.31", "name": "Luzern, Switzerland", "id": "130395125", "slug": "luzern-switzerland", "belong_city": "lucerne", "_id": {"$oid": "5905e52e78b83736b0db6fb2"}, "belong_city_id": "c311315", "lat": "47.05"}
{"lon": "8.3070152385546", "name": "Luzern Old Town", "id": "218252046", "slug": "luzern-old-town", "belong_city": "lucerne", "_id": {"$oid": "5905e52e78b83736b0db6fb3"}, "belong_city_id": "c311315", "lat": "47.051714929321"}
{"lon": "8.3068056235295", "name": "Luzern Switzerland", "id": "256393828", "slug": "luzern-switzerland", "belong_city": "lucerne", "_id": {"$oid": "5905e52e78b83736b0db6fb4"}, "belong_city_id": "c311315", "lat": "47.051665529832"}
{"lon": "8.3067881630718", "name": "Lake Luzern, Switzerland", "id": "220148758", "slug": "lake-luzern-switzerland", "belong_city": "lucerne", "_id": {"$oid": "5905e52e78b83736b0db6fb5"}, "belong_city_id": "c311315", "lat": "47.05165956554"}
{"lon": "8.3075333333333", "name": "Kapellbrücke", "id": "222822504", "slug": "kapellbrucke", "belong_city": "lucerne", "_id": {"$oid": "5905e52e78b83736b0db6fb6"}, "belong_city_id": "c311315", "lat": "47.051633333333"}
{"lon": "8.3099062123179", "name": "Lake Lucerne Cruise, Switzerland", "id": "238497939", "slug": "lake-lucerne-cruise-switzerland", "belong_city": "lucerne", "_id": {"$oid": "5905e52e78b83736b0db6fb7"}, "belong_city_id": "c311315", "lat": "47.050504401131"}
{"lon": "8.3080930296123", "name": "Luzern, Switzerland", "id": "286613572", "slug": "luzern-switzerland", "belong_city": "lucerne", "_id": {"$oid": "5905e52e78b83736b0db6fb8"}, "belong_city_id": "c311315", "lat": "47.051278886661"}
{"lon": "8.311150206916", "name": "Vierwaldstättersee / Lake Lucerne", "id": "216523584", "slug": "vierwaldstattersee-lake-lucerne", "belong_city": "lucerne", "_id": {"$oid": "5905e52e78b83736b0db6fb9"}, "belong_city_id": "c311315", "lat": "47.051316890719"}
{"lon": "8.3045", "name": "Stadt Luzern", "id": "213160630", "slug": "stadt-luzern", "belong_city": "lucerne", "_id": {"$oid": "5905e52e78b83736b0db6fba"}, "belong_city_id": "c311315", "lat": "47.04932"}
{"lon": "8.335819635548", "name": "Verkehrshaus der Schweiz", "id": "301542", "slug": "verkehrshaus-der-schweiz", "belong_city": "lucerne", "_id": {"$oid": "5905e52e78b83736b0db6fbb"}, "belong_city_id": "c311315", "lat": "47.0530747"}
{"lon": "8.3125699", "name": "Luzern City", "id": "228477017", "slug": "luzern-city", "belong_city": "lucerne", "_id": {"$oid": "5905e52e78b83736b0db6fbc"}, "belong_city_id": "c311315", "lat": "47.0426"}
{"lon": "8.3107362985405", "name": "Luzerner Seepromenade", "id": "217626667", "slug": "luzerner-seepromenade", "belong_city": "lucerne", "_id": {"$oid": "5905e52e78b83736b0db6fbd"}, "belong_city_id": "c311315", "lat": "47.052700543391"}
{"lon": "8.3023965730702", "name": "Mount Pilatus, Luzern, Switzerland", "id": "239612960", "slug": "mount-pilatus-luzern-switzerland", "belong_city": "lucerne", "_id": {"$oid": "5905e52e78b83736b0db6fbe"}, "belong_city_id": "c311315", "lat": "47.050712822154"}
{"lon": "8.30744", "name": "Chapel Bridge", "id": "16121080", "slug": "chapel-bridge", "belong_city": "lucerne", "_id": {"$oid": "5905e52e78b83736b0db6fbf"}, "belong_city_id": "c311315", "lat": "47.0516"}
{"lon": "8.2951763910974", "name": "Hotel Château Gütsch", "id": "308893048", "slug": "hotel-chateau-gutsch", "belong_city": "lucerne", "_id": {"$oid": "5905e52e78b83736b0db6fc0"}, "belong_city_id": "c311315", "lat": "47.051694293568"}
{"lon": "8.3091731120606", "name": "Jungfraujoch, Switzerland", "id": "216723324", "slug": "jungfraujoch-switzerland", "belong_city": "lucerne", "_id": {"$oid": "5905e52e78b83736b0db6fc1"}, "belong_city_id": "c311315", "lat": "47.049950222198"}
{"lon": "8.3103827285431", "name": "Hotel Schweizerhof Luzern", "id": "256632", "slug": "hotel-schweizerhof-luzern", "belong_city": "lucerne", "_id": {"$oid": "5905e52e78b83736b0db6fc2"}, "belong_city_id": "c311315", "lat": "47.054321045032"}
{"lon": "8.31026", "name": "Löwendenkmal - Lion Monument In Lucerne, Switzerland", "id": "220024738", "slug": "lowendenkmal-lion-monument-in-lucerne-switzerland", "belong_city": "lucerne", "_id": {"$oid": "5905e52e78b83736b0db6fc3"}, "belong_city_id": "c311315", "lat": "47.05888"}
{"lon": "8.3054998905553", "name": "Mt. Pilatus, Lucern, Switzerland", "id": "240249501", "slug": "mt-pilatus-lucern-switzerland", "belong_city": "lucerne", "_id": {"$oid": "5905e52e78b83736b0db6fc4"}, "belong_city_id": "c311315", "lat": "47.048177691653"}
{"lon": "8.3111111111111", "name": "Lion Monument", "id": "327946439", "slug": "lion-monument", "belong_city": "lucerne", "_id": {"$oid": "5905e52e78b83736b0db6fc5"}, "belong_city_id": "c311315", "lat": "47.058333333333"}
{"lon": "8.3091784338462", "name": "Mt. Rigi- Swiss Alps", "id": "240589593", "slug": "mt-rigi-swiss-alps", "belong_city": "lucerne", "_id": {"$oid": "5905e52e78b83736b0db6fc6"}, "belong_city_id": "c311315", "lat": "47.049618229231"}
{"lon": "8.31214427948", "name": "KKL Luzern", "id": "213920373", "slug": "kkl-luzern", "belong_city": "lucerne", "_id": {"$oid": "5905e52e78b83736b0db6fc7"}, "belong_city_id": "c311315", "lat": "47.050417324372"}
{"lon": "8.311771921525", "name": "Mount Titlis, Switzerland", "id": "238088530", "slug": "mount-titlis-switzerland", "belong_city": "lucerne", "_id": {"$oid": "5905e52e78b83736b0db6fc8"}, "belong_city_id": "c311315", "lat": "47.056715377324"}
{"lon": "8.30867", "name": "Luzern City Switzerland", "id": "255063981", "slug": "luzern-city-switzerland", "belong_city": "lucerne", "_id": {"$oid": "5905e52e78b83736b0db6fc9"}, "belong_city_id": "c311315", "lat": "47.04679"}
{"lon": "8.3105307123878", "name": "Gletschergarten Luzern", "id": "219945494", "slug": "gletschergarten-luzern", "belong_city": "lucerne", "_id": {"$oid": "5905e52e78b83736b0db6fca"}, "belong_city_id": "c311315", "lat": "47.058604400482"}
{"lon": "8.31963", "name": "Hotel PALACE LUZERN", "id": "30522474", "slug": "hotel-palace-luzern", "belong_city": "lucerne", "_id": {"$oid": "5905e52e78b83736b0db6fcb"}, "belong_city_id": "c311315", "lat": "47.05529"}
{"lon": "8.3071032027239", "name": "Kapellbrücke", "id": "980177", "slug": "kapellbrucke", "belong_city": "lucerne", "_id": {"$oid": "5905e52e78b83736b0db6fcc"}, "belong_city_id": "c311315", "lat": "47.051574205582"}
{"lon": "8.3105991847057", "name": "Lion Monument", "id": "229112883", "slug": "lion-monument", "belong_city": "lucerne", "_id": {"$oid": "5905e52e78b83736b0db6fcd"}, "belong_city_id": "c311315", "lat": "47.057906357875"}
{"lon": "8.30934944837", "name": "Lucerne, Switerland", "id": "256720773", "slug": "lucerne-switerland", "belong_city": "lucerne", "_id": {"$oid": "5905e52e78b83736b0db6fce"}, "belong_city_id": "c311315", "lat": "47.0493519567"}
{"lon": "8.3105555555556", "name": "Lucerne railway station", "id": "221191024", "slug": "lucerne-railway-station", "belong_city": "lucerne", "_id": {"$oid": "5905e52e78b83736b0db6fcf"}, "belong_city_id": "c311315", "lat": "47.048888888889"}
{"lon": "8.3119948062251", "name": "Blue Balls Festival", "id": "3992263", "slug": "blue-balls-festival", "belong_city": "lucerne", "_id": {"$oid": "5905e52e78b83736b0db6fd0"}, "belong_city_id": "c311315", "lat": "47.051069092096"}
{"lon": "8.3069287356378", "name": "Altstadt Luzern", "id": "24330", "slug": "altstadt-luzern", "belong_city": "lucerne", "_id": {"$oid": "5905e52e78b83736b0db6fd1"}, "belong_city_id": "c311315", "lat": "47.053538616"}
{"lon": "8.3351919672137", "name": "Luzern See", "id": "218232887", "slug": "luzern-see", "belong_city": "lucerne", "_id": {"$oid": "5905e52e78b83736b0db6fd2"}, "belong_city_id": "c311315", "lat": "47.052699607713"}
{"lon": "8.30543", "name": "Hotel Astoria Luzern", "id": "524251", "slug": "hotel-astoria-luzern", "belong_city": "lucerne", "_id": {"$oid": "5905e52e78b83736b0db6fd3"}, "belong_city_id": "c311315", "lat": "47.04815"}
{"lon": "8.3152114947398", "name": "Grand Hotel National Luzern", "id": "5719071", "slug": "grand-hotel-national-luzern", "belong_city": "lucerne", "_id": {"$oid": "5905e52e78b83736b0db6fd4"}, "belong_city_id": "c311315", "lat": "47.054755914019"}
{"lon": "8.3105555555556", "name": "Bahnhof Luzern", "id": "23840", "slug": "bahnhof-luzern", "belong_city": "lucerne", "_id": {"$oid": "5905e52e78b83736b0db6fd5"}, "belong_city_id": "c311315", "lat": "47.048888888889"}
{"lon": "8.3196112739486", "name": "Hotel Montana Luzern", "id": "1502546", "slug": "hotel-montana-luzern", "belong_city": "lucerne", "_id": {"$oid": "5905e52e78b83736b0db6fd6"}, "belong_city_id": "c311315", "lat": "47.056308205392"}
{"lon": "8.3079007217987", "name": "Luzern Schweiz Kappelbrücke", "id": "686048069", "slug": "luzern-schweiz-kappelbrucke", "belong_city": "lucerne", "_id": {"$oid": "5905e52e78b83736b0db6fd7"}, "belong_city_id": "c311315", "lat": "47.052245793505"}
{"lon": "8.3105846639618", "name": "Löwendenkmal Luzern", "id": "1974588", "slug": "lowendenkmal-luzern", "belong_city": "lucerne", "_id": {"$oid": "5905e52e78b83736b0db6fd8"}, "belong_city_id": "c311315", "lat": "47.057714970153"}
{"lon": "8.3106600574522", "name": "Old Swiss House", "id": "5723792", "slug": "old-swiss-house", "belong_city": "lucerne", "_id": {"$oid": "5905e52e78b83736b0db6fd9"}, "belong_city_id": "c311315", "lat": "47.056882901112"}
{"lon": "8.305597709169", "name": "Lucerna, Suiza", "id": "255085459", "slug": "lucerna-suiza", "belong_city": "lucerne", "_id": {"$oid": "5905e52e78b83736b0db6fda"}, "belong_city_id": "c311315", "lat": "47.048116042906"}
{"lon": "8.312122", "name": "Lucerne Culture and Congress Centre", "id": "257113561", "slug": "lucerne-culture-and-congress-centre", "belong_city": "lucerne", "_id": {"$oid": "5905e52e78b83736b0db6fdb"}, "belong_city_id": "c311315", "lat": "47.0506"}
{"lon": "8.31125", "name": "Konzerthaus Schüür", "id": "6081130", "slug": "konzerthaus-schuur", "belong_city": "lucerne", "_id": {"$oid": "5905e52e78b83736b0db6fdc"}, "belong_city_id": "c311315", "lat": "47.04458"}
{"lon": "8.3093259228571", "name": "Chapel Bridge Lucerne, Switzerland", "id": "1027790378", "slug": "chapel-bridge-lucerne-switzerland", "belong_city": "lucerne", "_id": {"$oid": "5905e52e78b83736b0db6fdd"}, "belong_city_id": "c311315", "lat": "47.048896188571"}
{"lon": "8.3054784740854", "name": "Luzern Engelberg Titlis , Switzerland", "id": "242366951", "slug": "luzern-engelberg-titlis-switzerland", "belong_city": "lucerne", "_id": {"$oid": "5905e52e78b83736b0db6fde"}, "belong_city_id": "c311315", "lat": "47.048209934188"}
{"lon": "8.30145", "name": "Museggmauer", "id": "259078989", "slug": "museggmauer", "belong_city": "lucerne", "_id": {"$oid": "5905e52e78b83736b0db6fdf"}, "belong_city_id": "c311315", "lat": "47.05346"}
{"lon": "8.30897", "name": "Lounge Bar Suite", "id": "4196050", "slug": "lounge-bar-suite", "belong_city": "lucerne", "_id": {"$oid": "5905e52e78b83736b0db6fe0"}, "belong_city_id": "c311315", "lat": "47.04976"}
{"lon": "8.3140527777778", "name": "Church of St. Leodegar", "id": "249915883", "slug": "church-of-st-leodegar", "belong_city": "lucerne", "_id": {"$oid": "5905e52e78b83736b0db6fe1"}, "belong_city_id": "c311315", "lat": "47.055655555556"}
{"lon": "7.5903481492673", "name": "On the Rhine River, Basel, Switzerland", "id": "261727296", "slug": "on-the-rhine-river-basel-switzerland", "belong_city": "klein-basel", "_id": {"$oid": "5905e52e78b83736b0db6fe2"}, "belong_city_id": "c310986", "lat": "47.560317730767"}
{"lon": "7.5824303518589", "name": "Basel Altstadt", "id": "380347142", "slug": "basel-altstadt", "belong_city": "klein-basel", "_id": {"$oid": "5905e52e78b83736b0db6fe3"}, "belong_city_id": "c310986", "lat": "47.55696749563"}
{"lon": "7.5902057411812", "name": "Basler Weihnachtsmarkt", "id": "276709687", "slug": "basler-weihnachtsmarkt", "belong_city": "klein-basel", "_id": {"$oid": "5905e52e78b83736b0db6fe4"}, "belong_city_id": "c310986", "lat": "47.554523608159"}
{"lon": "7.5827031", "name": "Zoo Basel", "id": "69260", "slug": "zoo-basel", "belong_city": "klein-basel", "_id": {"$oid": "5905e52e78b83736b0db6fe5"}, "belong_city_id": "c310986", "lat": "47.5488017"}
{"lon": "7.5870037078857", "name": "VOLTA Art Fair", "id": "226677847", "slug": "volta-art-fair", "belong_city": "klein-basel", "_id": {"$oid": "5905e52e78b83736b0db6fe6"}, "belong_city_id": "c310986", "lat": "47.549015134749"}
{"lon": "7.5841404186445", "name": "Basel, Switserland.", "id": "298138923", "slug": "basel-switserland", "belong_city": "klein-basel", "_id": {"$oid": "5905e52e78b83736b0db6fe7"}, "belong_city_id": "c310986", "lat": "47.568839755832"}
{"lon": "7.5893750501824", "name": "Barfüsserplatz", "id": "706242", "slug": "barfusserplatz", "belong_city": "klein-basel", "_id": {"$oid": "5905e52e78b83736b0db6fe8"}, "belong_city_id": "c310986", "lat": "47.554482102521"}
{"lon": "7.589281", "name": "Art Basel", "id": "868852393", "slug": "art-basel", "belong_city": "klein-basel", "_id": {"$oid": "5905e52e78b83736b0db6fe9"}, "belong_city_id": "c310986", "lat": "47.554267"}
{"lon": "7.5916379868332", "name": "Münsterplatz", "id": "4255649", "slug": "munsterplatz", "belong_city": "klein-basel", "_id": {"$oid": "5905e52e78b83736b0db6fea"}, "belong_city_id": "c310986", "lat": "47.556643758463"}
{"lon": "7.58818", "name": "Basler Fasnacht", "id": "1019410941", "slug": "basler-fasnacht", "belong_city": "klein-basel", "_id": {"$oid": "5905e52e78b83736b0db6feb"}, "belong_city_id": "c310986", "lat": "47.5598699"}
{"lon": "7.58816", "name": "Marktplatz Rathaus", "id": "286989279", "slug": "marktplatz-rathaus", "belong_city": "klein-basel", "_id": {"$oid": "5905e52e78b83736b0db6fec"}, "belong_city_id": "c310986", "lat": "47.55814"}
{"lon": "7.5844", "name": "Basler Herbstmesse - Petersplatz", "id": "684644334", "slug": "basler-herbstmesse-petersplatz", "belong_city": "klein-basel", "_id": {"$oid": "5905e52e78b83736b0db6fed"}, "belong_city_id": "c310986", "lat": "47.5591"}
{"lon": "7.59083", "name": "Münsterplatz Kirche Basel", "id": "224156354", "slug": "munsterplatz-kirche-basel", "belong_city": "klein-basel", "_id": {"$oid": "5905e52e78b83736b0db6fee"}, "belong_city_id": "c310986", "lat": "47.55673"}
{"lon": "7.58807", "name": "Marktplatz", "id": "214981626", "slug": "marktplatz", "belong_city": "klein-basel", "_id": {"$oid": "5905e52e78b83736b0db6fef"}, "belong_city_id": "c310986", "lat": "47.55807"}
{"lon": "7.5871442132312", "name": "La Diva Basel", "id": "427138892", "slug": "la-diva-basel", "belong_city": "klein-basel", "_id": {"$oid": "5905e52e78b83736b0db6ff0"}, "belong_city_id": "c310986", "lat": "47.557001417473"}
{"lon": "7.5897222222222", "name": "Mittlere Brücke", "id": "337404851", "slug": "mittlere-brucke", "belong_city": "klein-basel", "_id": {"$oid": "5905e52e78b83736b0db6ff1"}, "belong_city_id": "c310986", "lat": "47.56"}
{"lon": "7.59005904689", "name": "Theater Basel", "id": "69050", "slug": "theater-basel", "belong_city": "klein-basel", "_id": {"$oid": "5905e52e78b83736b0db6ff2"}, "belong_city_id": "c310986", "lat": "47.553031967424"}
{"lon": "7.5792044988827", "name": "Novartis Campus", "id": "1905484", "slug": "novartis-campus", "belong_city": "klein-basel", "_id": {"$oid": "5905e52e78b83736b0db6ff3"}, "belong_city_id": "c310986", "lat": "47.573255453337"}
{"lon": "7.5890422491769", "name": "Spielzeug Welten Museum Basel", "id": "79031105", "slug": "spielzeug-welten-museum-basel", "belong_city": "klein-basel", "_id": {"$oid": "5905e52e78b83736b0db6ff4"}, "belong_city_id": "c310986", "lat": "47.554088905431"}
{"lon": "7.5895804722584", "name": "Rhein River", "id": "237954383", "slug": "rhein-river", "belong_city": "klein-basel", "_id": {"$oid": "5905e52e78b83736b0db6ff5"}, "belong_city_id": "c310986", "lat": "47.560288815067"}
{"lon": "7.58833", "name": "Basel Town Hall", "id": "361551426", "slug": "basel-town-hall", "belong_city": "klein-basel", "_id": {"$oid": "5905e52e78b83736b0db6ff6"}, "belong_city_id": "c310986", "lat": "47.5583"}
{"lon": "7.585973739624", "name": "Basel Rhein", "id": "225809867", "slug": "basel-rhein", "belong_city": "klein-basel", "_id": {"$oid": "5905e52e78b83736b0db6ff7"}, "belong_city_id": "c310986", "lat": "47.567275083989"}
{"lon": "7.5901733483758", "name": "Am Rhy", "id": "234746613", "slug": "am-rhy", "belong_city": "klein-basel", "_id": {"$oid": "5905e52e78b83736b0db6ff8"}, "belong_city_id": "c310986", "lat": "47.560885371211"}
{"lon": "7.5909151084332", "name": "Kunsthalle Basel", "id": "2965695", "slug": "kunsthalle-basel", "belong_city": "klein-basel", "_id": {"$oid": "5905e52e78b83736b0db6ff9"}, "belong_city_id": "c310986", "lat": "47.553576578837"}
{"lon": "7.58767", "name": "Grand Hotel Les Trois Rois", "id": "234746611", "slug": "grand-hotel-les-trois-rois", "belong_city": "klein-basel", "_id": {"$oid": "5905e52e78b83736b0db6ffa"}, "belong_city_id": "c310986", "lat": "47.56044"}
{"lon": "7.58726", "name": "Markthalle Basel", "id": "259642890", "slug": "markthalle-basel", "belong_city": "klein-basel", "_id": {"$oid": "5905e52e78b83736b0db6ffb"}, "belong_city_id": "c310986", "lat": "47.54895"}
{"lon": "7.5905", "name": "Tinguely Brunnen", "id": "289908", "slug": "tinguely-brunnen", "belong_city": "klein-basel", "_id": {"$oid": "5905e52e78b83736b0db6ffc"}, "belong_city_id": "c310986", "lat": "47.55395"}
{"lon": "7.5876722222222", "name": "Hotel Les Trois Rois", "id": "1021061623", "slug": "hotel-les-trois-rois", "belong_city": "klein-basel", "_id": {"$oid": "5905e52e78b83736b0db6ffd"}, "belong_city_id": "c310986", "lat": "47.560438888889"}
{"lon": "7.5705568372737", "name": "Kannenfeldpark", "id": "5137165", "slug": "kannenfeldpark", "belong_city": "klein-basel", "_id": {"$oid": "5905e52e78b83736b0db6ffe"}, "belong_city_id": "c310986", "lat": "47.56543967"}
{"lon": "7.59111", "name": "Elisabethenkirche, Basel", "id": "217096225", "slug": "elisabethenkirche-basel", "belong_city": "klein-basel", "_id": {"$oid": "5905e52e78b83736b0db6fff"}, "belong_city_id": "c310986", "lat": "47.5528"}
{"lon": "7.58816", "name": "Rathaus Basel", "id": "445312", "slug": "rathaus-basel", "belong_city": "klein-basel", "_id": {"$oid": "5905e52e78b83736b0db7000"}, "belong_city_id": "c310986", "lat": "47.55814"}
{"lon": "7.5838699", "name": "Universität Basel", "id": "2001589", "slug": "universitat-basel", "belong_city": "klein-basel", "_id": {"$oid": "5905e52e78b83736b0db7001"}, "belong_city_id": "c310986", "lat": "47.5585289"}
{"lon": "7.5876722222222", "name": "Hotel Les Trois Rois", "id": "1768699", "slug": "hotel-les-trois-rois", "belong_city": "klein-basel", "_id": {"$oid": "5905e52e78b83736b0db7002"}, "belong_city_id": "c310986", "lat": "47.560438888889"}
{"lon": "7.5755331053469", "name": "Schützenmattpark", "id": "884228", "slug": "schutzenmattpark", "belong_city": "klein-basel", "_id": {"$oid": "5905e52e78b83736b0db7003"}, "belong_city_id": "c310986", "lat": "47.552528246928"}
{"lon": "7.5901102763344", "name": "Basel am Rhy", "id": "254803421", "slug": "basel-am-rhy", "belong_city": "klein-basel", "_id": {"$oid": "5905e52e78b83736b0db7004"}, "belong_city_id": "c310986", "lat": "47.561160573999"}
{"lon": "7.5903717929706", "name": "Naturhistorisches Museum Basel", "id": "276664602", "slug": "naturhistorisches-museum-basel", "belong_city": "klein-basel", "_id": {"$oid": "5905e52e78b83736b0db7005"}, "belong_city_id": "c310986", "lat": "47.557654952837"}
{"lon": "7.5811071", "name": "Botanischer Garten Basel", "id": "279179493", "slug": "botanischer-garten-basel", "belong_city": "klein-basel", "_id": {"$oid": "5905e52e78b83736b0db7006"}, "belong_city_id": "c310986", "lat": "47.5586085"}
{"lon": "7.5886012916567", "name": "Pathé Küchlin", "id": "1190347", "slug": "pathe-kuchlin", "belong_city": "klein-basel", "_id": {"$oid": "5905e52e78b83736b0db7007"}, "belong_city_id": "c310986", "lat": "47.552381015764"}
{"lon": "7.5838920943178", "name": "Universitätsspital Basel", "id": "234904512", "slug": "universitatsspital-basel", "belong_city": "klein-basel", "_id": {"$oid": "5905e52e78b83736b0db7008"}, "belong_city_id": "c310986", "lat": "47.561591915626"}
{"lon": "7.58333", "name": "Klein-Basel, Basel-Stadt, Switzerland", "id": "229117742", "slug": "klein-basel-basel-stadt-switzerland", "belong_city": "klein-basel", "_id": {"$oid": "5905e52e78b83736b0db7009"}, "belong_city_id": "c310986", "lat": "47.5667"}
{"lon": "7.5819887083746", "name": "Zolli - Zoo Basel", "id": "249165712", "slug": "zolli-zoo-basel", "belong_city": "klein-basel", "_id": {"$oid": "5905e52e78b83736b0db700a"}, "belong_city_id": "c310986", "lat": "47.548830482323"}
{"lon": "7.5916502020236", "name": "Hotel Krafft Basel", "id": "1861323", "slug": "hotel-krafft-basel", "belong_city": "klein-basel", "_id": {"$oid": "5905e52e78b83736b0db700b"}, "belong_city_id": "c310986", "lat": "47.560130721315"}
{"lon": "7.58936", "name": "Papa Joes", "id": "218465539", "slug": "papa-joes", "belong_city": "klein-basel", "_id": {"$oid": "5905e52e78b83736b0db700c"}, "belong_city_id": "c310986", "lat": "47.55425"}
{"lon": "7.5884177817218", "name": "unternehmen mitte", "id": "747832", "slug": "unternehmen-mitte", "belong_city": "klein-basel", "_id": {"$oid": "5905e52e78b83736b0db700d"}, "belong_city_id": "c310986", "lat": "47.556601174709"}
{"lon": "7.58757", "name": "Balz", "id": "401392229", "slug": "balz", "belong_city": "klein-basel", "_id": {"$oid": "5905e52e78b83736b0db700e"}, "belong_city_id": "c310986", "lat": "47.55236"}
{"lon": "7.5907796114663", "name": "Kaserne Basel *Musik*", "id": "237488356", "slug": "kaserne-basel-musik", "belong_city": "klein-basel", "_id": {"$oid": "5905e52e78b83736b0db700f"}, "belong_city_id": "c310986", "lat": "47.563488701208"}
{"lon": "7.58760882643", "name": "baltazar", "id": "234793373", "slug": "baltazar", "belong_city": "klein-basel", "_id": {"$oid": "5905e52e78b83736b0db7010"}, "belong_city_id": "c310986", "lat": "47.552313360541"}
{"lon": "7.5825612691622", "name": "St. Johannspark", "id": "2276891", "slug": "st-johannspark", "belong_city": "klein-basel", "_id": {"$oid": "5905e52e78b83736b0db7011"}, "belong_city_id": "c310986", "lat": "47.567626015616"}
{"lon": "6.1409053549125", "name": "Mandarin Oriental, Geneva", "id": "1340317", "slug": "mandarin-oriental-geneva", "belong_city": "coulouvrenière", "_id": {"$oid": "5905e52e78b83736b0db7012"}, "belong_city_id": "c310168", "lat": "46.205641051251"}
{"lon": "6.1387", "name": "Plainpalais", "id": "234381096", "slug": "plainpalais", "belong_city": "coulouvrenière", "_id": {"$oid": "5905e52e78b83736b0db7013"}, "belong_city_id": "c310168", "lat": "46.1927"}
{"lon": "6.1404", "name": "Plaine de Plainpalais", "id": "213188361", "slug": "plaine-de-plainpalais", "belong_city": "coulouvrenière", "_id": {"$oid": "5905e52e78b83736b0db7014"}, "belong_city_id": "c310168", "lat": "46.198"}
{"lon": "6.1411371324474", "name": "Victoria-Hall", "id": "393938", "slug": "victoria-hall", "belong_city": "coulouvrenière", "_id": {"$oid": "5905e52e78b83736b0db7015"}, "belong_city_id": "c310168", "lat": "46.201470437934"}
{"lon": "6.14035", "name": "Université de Genève - Uni Mail", "id": "216580688", "slug": "universite-de-geneve-uni-mail", "belong_city": "coulouvrenière", "_id": {"$oid": "5905e52e78b83736b0db7016"}, "belong_city_id": "c310168", "lat": "46.19471"}
{"lon": "6.1376340037225", "name": "Mamco", "id": "226409669", "slug": "mamco", "belong_city": "coulouvrenière", "_id": {"$oid": "5905e52e78b83736b0db7017"}, "belong_city_id": "c310168", "lat": "46.199098458197"}
{"lon": "6.1327814836779", "name": "Geneva City, Switzerland", "id": "214928589", "slug": "geneva-city-switzerland", "belong_city": "coulouvrenière", "_id": {"$oid": "5905e52e78b83736b0db7018"}, "belong_city_id": "c310168", "lat": "46.2087342547"}
{"lon": "6.13658", "name": "Bâtiment Des Forces Motrices", "id": "246555332", "slug": "batiment-des-forces-motrices", "belong_city": "coulouvrenière", "_id": {"$oid": "5905e52e78b83736b0db7019"}, "belong_city_id": "c310168", "lat": "46.20431"}
{"lon": "6.1334060450481", "name": "Patinoire des Vernets - GSHC", "id": "393184", "slug": "patinoire-des-vernets-gshc", "belong_city": "coulouvrenière", "_id": {"$oid": "5905e52e78b83736b0db701a"}, "belong_city_id": "c310168", "lat": "46.194278564735"}
{"lon": "6.12796", "name": "Bypass Geneva", "id": "222929149", "slug": "bypass-geneva", "belong_city": "coulouvrenière", "_id": {"$oid": "5905e52e78b83736b0db701b"}, "belong_city_id": "c310168", "lat": "46.18752"}
{"lon": "6.13926", "name": "FanZone Euro2016 Plainpalais", "id": "496679533859412", "slug": "fanzone-euro2016-plainpalais", "belong_city": "coulouvrenière", "_id": {"$oid": "5905e52e78b83736b0db701c"}, "belong_city_id": "c310168", "lat": "46.19779"}
{"lon": "6.14011997804", "name": "United Nations, Geneva, Switzerland.", "id": "274956981", "slug": "united-nations-geneva-switzerland", "belong_city": "coulouvrenière", "_id": {"$oid": "5905e52e78b83736b0db701d"}, "belong_city_id": "c310168", "lat": "46.2059899854"}
{"lon": "6.13036", "name": "La Jonction", "id": "858515363", "slug": "la-jonction", "belong_city": "coulouvrenière", "_id": {"$oid": "5905e52e78b83736b0db701e"}, "belong_city_id": "c310168", "lat": "46.2012"}
{"lon": "6.136353679848", "name": "Le Zoo / Usine (Officiel)", "id": "220189423", "slug": "le-zoo-usine-officiel", "belong_city": "coulouvrenière", "_id": {"$oid": "5905e52e78b83736b0db701f"}, "belong_city_id": "c310168", "lat": "46.203977136528"}
{"lon": "6.1354742", "name": "درياچه خليج فارس", "id": "371504043", "slug": "", "belong_city": "coulouvrenière", "_id": {"$oid": "5905e52e78b83736b0db7020"}, "belong_city_id": "c310168", "lat": "46.20888885"}
{"lon": "6.1398159349114", "name": "Geneve Centre", "id": "235700325", "slug": "geneve-centre", "belong_city": "coulouvrenière", "_id": {"$oid": "5905e52e78b83736b0db7021"}, "belong_city_id": "c310168", "lat": "46.200293662342"}
{"lon": "6.137660734656", "name": "Birdie Food & Coffee", "id": "375892957", "slug": "birdie-food-coffee", "belong_city": "coulouvrenière", "_id": {"$oid": "5905e52e78b83736b0db7022"}, "belong_city_id": "c310168", "lat": "46.199859146076"}
{"lon": "6.13396021", "name": "Patinoire des Vernets", "id": "218160160", "slug": "patinoire-des-vernets", "belong_city": "coulouvrenière", "_id": {"$oid": "5905e52e78b83736b0db7023"}, "belong_city_id": "c310168", "lat": "46.19465546"}
{"lon": "6.1372488746667", "name": "Foound", "id": "585758916", "slug": "foound", "belong_city": "coulouvrenière", "_id": {"$oid": "5905e52e78b83736b0db7024"}, "belong_city_id": "c310168", "lat": "46.209132326667"}
{"lon": "6.135691345689", "name": "Envogue", "id": "379664052", "slug": "envogue", "belong_city": "coulouvrenière", "_id": {"$oid": "5905e52e78b83736b0db7025"}, "belong_city_id": "c310168", "lat": "46.205176156384"}
{"lon": "6.1394648458964", "name": "Gstaad Switzerland", "id": "314207581", "slug": "gstaad-switzerland", "belong_city": "coulouvrenière", "_id": {"$oid": "5905e52e78b83736b0db7026"}, "belong_city_id": "c310168", "lat": "46.202044370394"}
{"lon": "6.1376", "name": "Centre d’Art Contemporain Genève", "id": "360478721", "slug": "centre-dart-contemporain-geneve", "belong_city": "coulouvrenière", "_id": {"$oid": "5905e52e78b83736b0db7027"}, "belong_city_id": "c310168", "lat": "46.1992"}
{"lon": "6.13488", "name": "Palladium", "id": "143470", "slug": "palladium", "belong_city": "coulouvrenière", "_id": {"$oid": "5905e52e78b83736b0db7028"}, "belong_city_id": "c310168", "lat": "46.2033"}
{"lon": "6.1411496455473", "name": "Brasserie des halles de lîle", "id": "218481159", "slug": "brasserie-des-halles-de-lile", "belong_city": "coulouvrenière", "_id": {"$oid": "5905e52e78b83736b0db7029"}, "belong_city_id": "c310168", "lat": "46.204656017552"}
{"lon": "6.1335481232955", "name": "A Geneve", "id": "785580534", "slug": "a-geneve", "belong_city": "coulouvrenière", "_id": {"$oid": "5905e52e78b83736b0db702a"}, "belong_city_id": "c310168", "lat": "46.209566258703"}
{"lon": "6.1360812134778", "name": "Post Tenebras Rock - LUsine", "id": "241663072", "slug": "post-tenebras-rock-lusine", "belong_city": "coulouvrenière", "_id": {"$oid": "5905e52e78b83736b0db702b"}, "belong_city_id": "c310168", "lat": "46.204270551058"}
{"lon": "6.1364206819871", "name": "RTS - Radio Television Suisse", "id": "938430", "slug": "rts-radio-television-suisse", "belong_city": "coulouvrenière", "_id": {"$oid": "5905e52e78b83736b0db702c"}, "belong_city_id": "c310168", "lat": "46.196634837524"}
{"lon": "6.1373138888889", "name": "Musée dethnographie de Genève", "id": "911607161", "slug": "musee-dethnographie-de-geneve", "belong_city": "coulouvrenière", "_id": {"$oid": "5905e52e78b83736b0db702d"}, "belong_city_id": "c310168", "lat": "46.197797222222"}
{"lon": "6.13628", "name": "Kalvingrad", "id": "26909872", "slug": "kalvingrad", "belong_city": "coulouvrenière", "_id": {"$oid": "5905e52e78b83736b0db702e"}, "belong_city_id": "c310168", "lat": "46.204"}
{"lon": "6.14052", "name": "Skate Parc de Plainpalais", "id": "1398313", "slug": "skate-parc-de-plainpalais", "belong_city": "coulouvrenière", "_id": {"$oid": "5905e52e78b83736b0db702f"}, "belong_city_id": "c310168", "lat": "46.199489832143"}
{"lon": "6.1393", "name": "Les Grottes", "id": "878563857", "slug": "les-grottes", "belong_city": "coulouvrenière", "_id": {"$oid": "5905e52e78b83736b0db7030"}, "belong_city_id": "c310168", "lat": "46.2109"}
{"lon": "6.12569", "name": "Bois de la Bâtie", "id": "831131647", "slug": "bois-de-la-batie", "belong_city": "coulouvrenière", "_id": {"$oid": "5905e52e78b83736b0db7031"}, "belong_city_id": "c310168", "lat": "46.1985"}
{"lon": "6.13014", "name": "La Gravière - Officiel", "id": "217134091", "slug": "la-graviere-officiel", "belong_city": "coulouvrenière", "_id": {"$oid": "5905e52e78b83736b0db7032"}, "belong_city_id": "c310168", "lat": "46.19743"}
{"lon": "6.1375", "name": "Musée dart moderne et contemporain", "id": "235728295", "slug": "musee-dart-moderne-et-contemporain", "belong_city": "coulouvrenière", "_id": {"$oid": "5905e52e78b83736b0db7033"}, "belong_city_id": "c310168", "lat": "46.19877"}
{"lon": "6.14129", "name": "Haute école dart et de design - Genève", "id": "661347", "slug": "haute-ecole-dart-et-de-design-geneve", "belong_city": "coulouvrenière", "_id": {"$oid": "5905e52e78b83736b0db7034"}, "belong_city_id": "c310168", "lat": "46.2089"}
{"lon": "6.13573", "name": "Funky Monkey Room aka FMR", "id": "11437349", "slug": "funky-monkey-room-aka-fmr", "belong_city": "coulouvrenière", "_id": {"$oid": "5905e52e78b83736b0db7035"}, "belong_city_id": "c310168", "lat": "46.2034"}
{"lon": "6.1390901", "name": "Genève, Suisse.", "id": "215163269", "slug": "geneve-suisse", "belong_city": "coulouvrenière", "_id": {"$oid": "5905e52e78b83736b0db7036"}, "belong_city_id": "c310168", "lat": "46.2096825"}
{"lon": "6.1367369578045", "name": "CrossFit GVA", "id": "5248381", "slug": "crossfit-gva", "belong_city": "coulouvrenière", "_id": {"$oid": "5905e52e78b83736b0db7037"}, "belong_city_id": "c310168", "lat": "46.208693517285"}
{"lon": "6.1375", "name": "MAMCO", "id": "1034175883323118", "slug": "mamco", "belong_city": "coulouvrenière", "_id": {"$oid": "5905e52e78b83736b0db7038"}, "belong_city_id": "c310168", "lat": "46.19877"}
{"lon": "6.1312725674418", "name": "Jonction", "id": "26611089", "slug": "jonction", "belong_city": "coulouvrenière", "_id": {"$oid": "5905e52e78b83736b0db7039"}, "belong_city_id": "c310168", "lat": "46.200293827"}
{"lon": "6.1378969794445", "name": "Cercle des Bains", "id": "287833217", "slug": "cercle-des-bains", "belong_city": "coulouvrenière", "_id": {"$oid": "5905e52e78b83736b0db703a"}, "belong_city_id": "c310168", "lat": "46.199011166569"}
{"lon": "6.13823", "name": "MAMCO Genève", "id": "282473204", "slug": "mamco-geneve", "belong_city": "coulouvrenière", "_id": {"$oid": "5905e52e78b83736b0db703b"}, "belong_city_id": "c310168", "lat": "46.19863"}
{"lon": "6.1354750883526", "name": "Genève , Quai Du Seujet", "id": "249181809", "slug": "geneve-quai-du-seujet", "belong_city": "coulouvrenière", "_id": {"$oid": "5905e52e78b83736b0db703c"}, "belong_city_id": "c310168", "lat": "46.205313989759"}
{"lon": "6.1393307803955", "name": "Uptown Geneva", "id": "220249015", "slug": "uptown-geneva", "belong_city": "coulouvrenière", "_id": {"$oid": "5905e52e78b83736b0db703d"}, "belong_city_id": "c310168", "lat": "46.209345447291"}
{"lon": "6.13978", "name": "Le Moulin Rouge", "id": "456546710", "slug": "le-moulin-rouge", "belong_city": "coulouvrenière", "_id": {"$oid": "5905e52e78b83736b0db703e"}, "belong_city_id": "c310168", "lat": "46.2009"}
{"lon": "6.138454663752", "name": "LE KRAKEN BAR", "id": "9865651", "slug": "le-kraken-bar", "belong_city": "coulouvrenière", "_id": {"$oid": "5905e52e78b83736b0db703f"}, "belong_city_id": "c310168", "lat": "46.197331719964"}
{"lon": "6.1367587", "name": "Musée dethnographie de Genève - MEG", "id": "280706704", "slug": "musee-dethnographie-de-geneve-meg", "belong_city": "coulouvrenière", "_id": {"$oid": "5905e52e78b83736b0db7040"}, "belong_city_id": "c310168", "lat": "46.197652"}
{"lon": "6.1299054", "name": "A La Jonction", "id": "251338984", "slug": "a-la-jonction", "belong_city": "coulouvrenière", "_id": {"$oid": "5905e52e78b83736b0db7041"}, "belong_city_id": "c310168", "lat": "46.20081666"}
{"lon": "6.13333", "name": "Carouge, Switzerland", "id": "227825687", "slug": "carouge-switzerland", "belong_city": "les acacias", "_id": {"$oid": "5905e52e78b83736b0db7042"}, "belong_city_id": "c311192", "lat": "46.1833"}
{"lon": "6.13783", "name": "Suisse,geneve", "id": "237252600", "slug": "suissegeneve", "belong_city": "les acacias", "_id": {"$oid": "5905e52e78b83736b0db7043"}, "belong_city_id": "c311192", "lat": "46.18864"}
{"lon": "6.12796", "name": "Bypass Geneva", "id": "222929149", "slug": "bypass-geneva", "belong_city": "les acacias", "_id": {"$oid": "5905e52e78b83736b0db7044"}, "belong_city_id": "c311192", "lat": "46.18752"}
{"lon": "6.1281544871062", "name": "La Praille", "id": "237801536", "slug": "la-praille", "belong_city": "les acacias", "_id": {"$oid": "5905e52e78b83736b0db7045"}, "belong_city_id": "c311192", "lat": "46.179885474266"}
{"lon": "6.1400157534752", "name": "Carouge Geneva", "id": "219063254", "slug": "carouge-geneva", "belong_city": "les acacias", "_id": {"$oid": "5905e52e78b83736b0db7046"}, "belong_city_id": "c311192", "lat": "46.18170317359"}
{"lon": "6.1275", "name": "Stade de Genève", "id": "803325416", "slug": "stade-de-geneve", "belong_city": "les acacias", "_id": {"$oid": "5905e52e78b83736b0db7047"}, "belong_city_id": "c311192", "lat": "46.177778"}
{"lon": "6.1430475605352", "name": "Rue de Carouge", "id": "13025399", "slug": "rue-de-carouge", "belong_city": "les acacias", "_id": {"$oid": "5905e52e78b83736b0db7048"}, "belong_city_id": "c311192", "lat": "46.189425877375"}
{"lon": "6.1275708675385", "name": "Village du Soir", "id": "1599924590303387", "slug": "village-du-soir", "belong_city": "les acacias", "_id": {"$oid": "5905e52e78b83736b0db7049"}, "belong_city_id": "c311192", "lat": "46.176665726047"}
{"lon": "6.1287181259436", "name": "A Geneve", "id": "508340798", "slug": "a-geneve", "belong_city": "les acacias", "_id": {"$oid": "5905e52e78b83736b0db704a"}, "belong_city_id": "c311192", "lat": "46.173927719412"}
{"lon": "6.14125996456", "name": "Genève - Swisse", "id": "252133674", "slug": "geneve-swisse", "belong_city": "les acacias", "_id": {"$oid": "5905e52e78b83736b0db704b"}, "belong_city_id": "c311192", "lat": "46.1746387017"}
{"lon": "6.1387043215228", "name": "Carouge", "id": "256670", "slug": "carouge", "belong_city": "les acacias", "_id": {"$oid": "5905e52e78b83736b0db704c"}, "belong_city_id": "c311192", "lat": "46.179894312535"}
{"lon": "6.1423386415884", "name": "Chat Noir Carouge", "id": "246984070", "slug": "chat-noir-carouge", "belong_city": "les acacias", "_id": {"$oid": "5905e52e78b83736b0db704d"}, "belong_city_id": "c311192", "lat": "46.185089067778"}
{"lon": "6.14186", "name": "Marché Noir", "id": "1006697238", "slug": "marche-noir", "belong_city": "les acacias", "_id": {"$oid": "5905e52e78b83736b0db704e"}, "belong_city_id": "c311192", "lat": "46.18545"}
{"lon": "6.1276038028093", "name": "Stade de Genève", "id": "1295005", "slug": "stade-de-geneve", "belong_city": "les acacias", "_id": {"$oid": "5905e52e78b83736b0db704f"}, "belong_city_id": "c311192", "lat": "46.1780407103"}
{"lon": "6.1281174510698", "name": "Unofficial: Bypass Geneva", "id": "270574529", "slug": "unofficial-bypass-geneva", "belong_city": "les acacias", "_id": {"$oid": "5905e52e78b83736b0db7050"}, "belong_city_id": "c311192", "lat": "46.187236425"}
{"lon": "6.1283063993145", "name": "Arena Cinemas Genève - La Praille", "id": "318240011", "slug": "arena-cinemas-geneve-la-praille", "belong_city": "les acacias", "_id": {"$oid": "5905e52e78b83736b0db7051"}, "belong_city_id": "c311192", "lat": "46.180405480982"}
{"lon": "6.13333", "name": "Les Acacias, Geneve, Switzerland", "id": "248370698", "slug": "les-acacias-geneve-switzerland", "belong_city": "les acacias", "_id": {"$oid": "5905e52e78b83736b0db7052"}, "belong_city_id": "c311192", "lat": "46.1833"}
{"lon": "6.1276879382578", "name": "Genève, Stade de La Praille.", "id": "238037235", "slug": "geneve-stade-de-la-praille", "belong_city": "les acacias", "_id": {"$oid": "5905e52e78b83736b0db7053"}, "belong_city_id": "c311192", "lat": "46.178246081628"}
{"lon": "6.13795", "name": "MonteCristo Club", "id": "340083220", "slug": "montecristo-club", "belong_city": "les acacias", "_id": {"$oid": "5905e52e78b83736b0db7054"}, "belong_city_id": "c311192", "lat": "46.1902199"}
{"lon": "6.13863", "name": "StaminA Crossgym GVA", "id": "1008222567", "slug": "stamina-crossgym-gva", "belong_city": "les acacias", "_id": {"$oid": "5905e52e78b83736b0db7055"}, "belong_city_id": "c311192", "lat": "46.18891"}
{"lon": "6.1390065609666", "name": "INKVADERS TATTOO", "id": "434642428", "slug": "inkvaders-tattoo", "belong_city": "les acacias", "_id": {"$oid": "5905e52e78b83736b0db7056"}, "belong_city_id": "c311192", "lat": "46.179584487756"}
{"lon": "6.1271725753668", "name": "Ramada Encore Genève", "id": "239939027", "slug": "ramada-encore-geneve", "belong_city": "les acacias", "_id": {"$oid": "5905e52e78b83736b0db7057"}, "belong_city_id": "c311192", "lat": "46.179096980665"}
{"lon": "6.1280477042025", "name": "Bowling de la Praille", "id": "260427", "slug": "bowling-de-la-praille", "belong_city": "les acacias", "_id": {"$oid": "5905e52e78b83736b0db7058"}, "belong_city_id": "c311192", "lat": "46.179792988496"}
{"lon": "6.139051857907", "name": "Inkvaders Tattoo Studio", "id": "1367459", "slug": "inkvaders-tattoo-studio", "belong_city": "les acacias", "_id": {"$oid": "5905e52e78b83736b0db7059"}, "belong_city_id": "c311192", "lat": "46.179588817541"}
{"lon": "6.1281917090097", "name": "Bypass", "id": "717821", "slug": "bypass", "belong_city": "les acacias", "_id": {"$oid": "5905e52e78b83736b0db705a"}, "belong_city_id": "c311192", "lat": "46.187220492772"}
{"lon": "6.1388192230511", "name": "Place de La Sardaigne", "id": "4466728", "slug": "place-de-la-sardaigne", "belong_city": "les acacias", "_id": {"$oid": "5905e52e78b83736b0db705b"}, "belong_city_id": "c311192", "lat": "46.184079670726"}
{"lon": "6.1391032936808", "name": "Fête de la tomate", "id": "333362701", "slug": "fete-de-la-tomate", "belong_city": "les acacias", "_id": {"$oid": "5905e52e78b83736b0db705c"}, "belong_city_id": "c311192", "lat": "46.183808658496"}
{"lon": "6.1417131761918", "name": "Place Du Marché", "id": "4811742", "slug": "place-du-marche", "belong_city": "les acacias", "_id": {"$oid": "5905e52e78b83736b0db705d"}, "belong_city_id": "c311192", "lat": "46.184433477743"}
{"lon": "6.13607192", "name": "Vielle Ville", "id": "345240481", "slug": "vielle-ville", "belong_city": "les acacias", "_id": {"$oid": "5905e52e78b83736b0db705e"}, "belong_city_id": "c311192", "lat": "46.18943313"}
{"lon": "6.1293101", "name": "Pavillon Sicli", "id": "1015749175", "slug": "pavillon-sicli", "belong_city": "les acacias", "_id": {"$oid": "5905e52e78b83736b0db705f"}, "belong_city_id": "c311192", "lat": "46.188839"}
{"lon": "6.1280651957845", "name": "La Praille, Geneve, Switzerland", "id": "252395806", "slug": "la-praille-geneve-switzerland", "belong_city": "les acacias", "_id": {"$oid": "5905e52e78b83736b0db7060"}, "belong_city_id": "c311192", "lat": "46.179192276263"}
{"lon": "6.1323773860931", "name": "Studio 420", "id": "1017960395", "slug": "studio-420", "belong_city": "les acacias", "_id": {"$oid": "5905e52e78b83736b0db7061"}, "belong_city_id": "c311192", "lat": "46.187904720403"}
{"lon": "6.1385930572257", "name": "Carouge, Geneva - Switzerland", "id": "287837502", "slug": "carouge-geneva-switzerland", "belong_city": "les acacias", "_id": {"$oid": "5905e52e78b83736b0db7062"}, "belong_city_id": "c311192", "lat": "46.189680398842"}
{"lon": "6.14212", "name": "Marché de Carouge", "id": "847738", "slug": "marche-de-carouge", "belong_city": "les acacias", "_id": {"$oid": "5905e52e78b83736b0db7063"}, "belong_city_id": "c311192", "lat": "46.1843999"}
{"lon": "6.1288398034188", "name": "Motel Campo", "id": "247811886", "slug": "motel-campo", "belong_city": "les acacias", "_id": {"$oid": "5905e52e78b83736b0db7064"}, "belong_city_id": "c311192", "lat": "46.185552045122"}
{"lon": "6.1310333027273", "name": "CREA Genève - INSEEC", "id": "13356815", "slug": "crea-geneve-inseec", "belong_city": "les acacias", "_id": {"$oid": "5905e52e78b83736b0db7065"}, "belong_city_id": "c311192", "lat": "46.191302053077"}
{"lon": "6.1411099", "name": "Café du Marché Carouge", "id": "838719877", "slug": "cafe-du-marche-carouge", "belong_city": "les acacias", "_id": {"$oid": "5905e52e78b83736b0db7066"}, "belong_city_id": "c311192", "lat": "46.1843987"}
{"lon": "6.1414700740742", "name": "quimporte", "id": "10250276", "slug": "quimporte", "belong_city": "les acacias", "_id": {"$oid": "5905e52e78b83736b0db7067"}, "belong_city_id": "c311192", "lat": "46.18325335375"}
{"lon": "6.1298882961273", "name": "Grotesque Tattooing", "id": "1021789238", "slug": "grotesque-tattooing", "belong_city": "les acacias", "_id": {"$oid": "5905e52e78b83736b0db7068"}, "belong_city_id": "c311192", "lat": "46.184272540594"}
{"lon": "6.1268627643585", "name": "Grand Central Festival Antigel", "id": "589490490", "slug": "grand-central-festival-antigel", "belong_city": "les acacias", "_id": {"$oid": "5905e52e78b83736b0db7069"}, "belong_city_id": "c311192", "lat": "46.186575177317"}
{"lon": "6.1407800929859", "name": "Tambourine", "id": "259742912", "slug": "tambourine", "belong_city": "les acacias", "_id": {"$oid": "5905e52e78b83736b0db706a"}, "belong_city_id": "c311192", "lat": "46.175163700119"}
{"lon": "6.1398378", "name": "Le Cheval Blanc Carouge", "id": "886843", "slug": "le-cheval-blanc-carouge", "belong_city": "les acacias", "_id": {"$oid": "5905e52e78b83736b0db706b"}, "belong_city_id": "c311192", "lat": "46.1875397"}
{"lon": "6.14183", "name": "Le Flacon", "id": "1019721275", "slug": "le-flacon", "belong_city": "les acacias", "_id": {"$oid": "5905e52e78b83736b0db706c"}, "belong_city_id": "c311192", "lat": "46.1833992"}
{"lon": "6.1407111553144", "name": "Ô Calme", "id": "11693313", "slug": "o-calme", "belong_city": "les acacias", "_id": {"$oid": "5905e52e78b83736b0db706d"}, "belong_city_id": "c311192", "lat": "46.182008346745"}
{"lon": "6.130809785", "name": "Crea Genève", "id": "1663856", "slug": "crea-geneve", "belong_city": "les acacias", "_id": {"$oid": "5905e52e78b83736b0db706e"}, "belong_city_id": "c311192", "lat": "46.19148779"}
{"lon": "6.1284614801443", "name": "Centre Commercial La Praille", "id": "733548", "slug": "centre-commercial-la-praille", "belong_city": "les acacias", "_id": {"$oid": "5905e52e78b83736b0db706f"}, "belong_city_id": "c311192", "lat": "46.179355715415"}
{"lon": "6.1279473141999", "name": "Harmony Fitness Club La Praille", "id": "4415275", "slug": "harmony-fitness-club-la-praille", "belong_city": "les acacias", "_id": {"$oid": "5905e52e78b83736b0db7070"}, "belong_city_id": "c311192", "lat": "46.180013897665"}
{"lon": "6.1390331", "name": "Sardaigne", "id": "960284650", "slug": "sardaigne", "belong_city": "les acacias", "_id": {"$oid": "5905e52e78b83736b0db7071"}, "belong_city_id": "c311192", "lat": "46.1839236"}
{"lon": "6.58333", "name": "Renens, Vaud", "id": "226122366", "slug": "renens-vaud", "belong_city": "renens", "_id": {"$oid": "5905e52e78b83736b0db7072"}, "belong_city_id": "c311991", "lat": "46.5333"}
{"lon": "6.5883306497311", "name": "ECAL/Ecole cantonale dart de Lausanne", "id": "229782837", "slug": "ecalecole-cantonale-dart-de-lausanne", "belong_city": "renens", "_id": {"$oid": "5905e52e78b83736b0db7073"}, "belong_city_id": "c311991", "lat": "46.536865059696"}
{"lon": "6.58333", "name": "Prilly, Switzerland", "id": "239011527", "slug": "prilly-switzerland", "belong_city": "renens", "_id": {"$oid": "5905e52e78b83736b0db7074"}, "belong_city_id": "c311991", "lat": "46.5333"}
{"lon": "6.60663466981", "name": "Lausanne Malley", "id": "250411413", "slug": "lausanne-malley", "belong_city": "renens", "_id": {"$oid": "5905e52e78b83736b0db7075"}, "belong_city_id": "c311991", "lat": "46.5287035035"}
{"lon": "6.5840409688068", "name": "Université de Lausanne - Dorigny", "id": "269361236", "slug": "universite-de-lausanne-dorigny", "belong_city": "renens", "_id": {"$oid": "5905e52e78b83736b0db7076"}, "belong_city_id": "c311991", "lat": "46.522341660769"}
{"lon": "6.5833333333333", "name": "Chavannes-près-Renens", "id": "238607267", "slug": "chavannes-pres-renens", "belong_city": "renens", "_id": {"$oid": "5905e52e78b83736b0db7077"}, "belong_city_id": "c311991", "lat": "46.533333333333"}
{"lon": "6.5812396175431", "name": "Renens Centre", "id": "675581167", "slug": "renens-centre", "belong_city": "renens", "_id": {"$oid": "5905e52e78b83736b0db7078"}, "belong_city_id": "c311991", "lat": "46.538273821942"}
{"lon": "6.5969444444444", "name": "International Olympic Committee", "id": "3350237", "slug": "international-olympic-committee", "belong_city": "renens", "_id": {"$oid": "5905e52e78b83736b0db7079"}, "belong_city_id": "c311991", "lat": "46.518055555556"}
{"lon": "6.58979983605", "name": "Paris France", "id": "221994467", "slug": "paris-france", "belong_city": "renens", "_id": {"$oid": "5905e52e78b83736b0db707a"}, "belong_city_id": "c311991", "lat": "46.5355754097"}
{"lon": "6.5908868183591", "name": "Lac de Vidy", "id": "234940414", "slug": "lac-de-vidy", "belong_city": "renens", "_id": {"$oid": "5905e52e78b83736b0db707b"}, "belong_city_id": "c311991", "lat": "46.518595604937"}
{"lon": "6.5845125545253", "name": "Université de Lausanne - Anthropole", "id": "1071320", "slug": "universite-de-lausanne-anthropole", "belong_city": "renens", "_id": {"$oid": "5905e52e78b83736b0db707c"}, "belong_city_id": "c311991", "lat": "46.523348265598"}
{"lon": "6.6002660057122", "name": "Malley - LHC", "id": "743992340", "slug": "malley-lhc", "belong_city": "renens", "_id": {"$oid": "5905e52e78b83736b0db707d"}, "belong_city_id": "c311991", "lat": "46.528753272355"}
{"lon": "6.600111", "name": "CIG de Malley", "id": "400962253", "slug": "cig-de-malley", "belong_city": "renens", "_id": {"$oid": "5905e52e78b83736b0db707e"}, "belong_city_id": "c311991", "lat": "46.528717"}
{"lon": "6.6023474076006", "name": "Fitnessparc Malley", "id": "268005603", "slug": "fitnessparc-malley", "belong_city": "renens", "_id": {"$oid": "5905e52e78b83736b0db707f"}, "belong_city_id": "c311991", "lat": "46.527634935568"}
{"lon": "6.5883628380332", "name": "Ecal", "id": "1315745", "slug": "ecal", "belong_city": "renens", "_id": {"$oid": "5905e52e78b83736b0db7080"}, "belong_city_id": "c311991", "lat": "46.536919511581"}
{"lon": "6.57712", "name": "Suisse / Genève", "id": "258873259", "slug": "suisse-geneve", "belong_city": "renens", "_id": {"$oid": "5905e52e78b83736b0db7081"}, "belong_city_id": "c311991", "lat": "46.53854"}
{"lon": "6.6003107331392", "name": "Patinoire de Malley", "id": "47768", "slug": "patinoire-de-malley", "belong_city": "renens", "_id": {"$oid": "5905e52e78b83736b0db7082"}, "belong_city_id": "c311991", "lat": "46.528708318801"}
{"lon": "6.57831662", "name": "Crisser", "id": "260818455", "slug": "crisser", "belong_city": "renens", "_id": {"$oid": "5905e52e78b83736b0db7083"}, "belong_city_id": "c311991", "lat": "46.53899359"}
{"lon": "6.60011", "name": "Patinoire de Malley, Lausanne, Suisse", "id": "1025709762", "slug": "patinoire-de-malley-lausanne-suisse", "belong_city": "renens", "_id": {"$oid": "5905e52e78b83736b0db7084"}, "belong_city_id": "c311991", "lat": "46.52785"}
{"lon": "6.5836424746664", "name": "Piscine de Renens", "id": "2677024", "slug": "piscine-de-renens", "belong_city": "renens", "_id": {"$oid": "5905e52e78b83736b0db7085"}, "belong_city_id": "c311991", "lat": "46.529971737395"}
{"lon": "6.5916499", "name": "Cathedral International Lausanne", "id": "1759338647683268", "slug": "cathedral-international-lausanne", "belong_city": "renens", "_id": {"$oid": "5905e52e78b83736b0db7086"}, "belong_city_id": "c311991", "lat": "46.53034"}
{"lon": "6.5853963290017", "name": "Université de Lausanne - Internef", "id": "235456598", "slug": "universite-de-lausanne-internef", "belong_city": "renens", "_id": {"$oid": "5905e52e78b83736b0db7087"}, "belong_city_id": "c311991", "lat": "46.522258089134"}
{"lon": "6.5998986459831", "name": "Lausanne Hockey Club", "id": "400931466", "slug": "lausanne-hockey-club", "belong_city": "renens", "_id": {"$oid": "5905e52e78b83736b0db7088"}, "belong_city_id": "c311991", "lat": "46.528765032068"}
{"lon": "6.5818012975719", "name": "» Renens «", "id": "51041", "slug": "renens", "belong_city": "renens", "_id": {"$oid": "5905e52e78b83736b0db7089"}, "belong_city_id": "c311991", "lat": "46.538277290011"}
{"lon": "6.60534673", "name": "Vallée de la Jeunesse", "id": "318682705", "slug": "vallee-de-la-jeunesse", "belong_city": "renens", "_id": {"$oid": "5905e52e78b83736b0db708a"}, "belong_city_id": "c311991", "lat": "46.52228301"}
{"lon": "6.59133061341", "name": "Zvicer", "id": "259825937", "slug": "zvicer", "belong_city": "renens", "_id": {"$oid": "5905e52e78b83736b0db708b"}, "belong_city_id": "c311991", "lat": "46.5334389962"}
{"lon": "6.6066580857285", "name": "Prilly", "id": "1070174", "slug": "prilly", "belong_city": "renens", "_id": {"$oid": "5905e52e78b83736b0db708c"}, "belong_city_id": "c311991", "lat": "46.533838529691"}
{"lon": "6.578889", "name": "Renens CFF station", "id": "218729260", "slug": "renens-cff-station", "belong_city": "renens", "_id": {"$oid": "5905e52e78b83736b0db708d"}, "belong_city_id": "c311991", "lat": "46.536944"}
{"lon": "6.5957746190494", "name": "Lausanne (Renens)", "id": "216404441", "slug": "lausanne-renens", "belong_city": "renens", "_id": {"$oid": "5905e52e78b83736b0db708e"}, "belong_city_id": "c311991", "lat": "46.538444539414"}
{"lon": "6.6002934663413", "name": "Centre sportif de Malley", "id": "218628140", "slug": "centre-sportif-de-malley", "belong_city": "renens", "_id": {"$oid": "5905e52e78b83736b0db708f"}, "belong_city_id": "c311991", "lat": "46.52864852664"}
{"lon": "6.60288", "name": "La Galicienne", "id": "1035031054", "slug": "la-galicienne", "belong_city": "renens", "_id": {"$oid": "5905e52e78b83736b0db7090"}, "belong_city_id": "c311991", "lat": "46.5273899"}
{"lon": "6.60612", "name": "Prilly Centre", "id": "573257692857948", "slug": "prilly-centre", "belong_city": "renens", "_id": {"$oid": "5905e52e78b83736b0db7091"}, "belong_city_id": "c311991", "lat": "46.5342"}
{"lon": "6.6048062574803", "name": "Morges Bord Du Lac", "id": "256304324", "slug": "morges-bord-du-lac", "belong_city": "renens", "_id": {"$oid": "5905e52e78b83736b0db7092"}, "belong_city_id": "c311991", "lat": "46.532390134799"}
{"lon": "6.5875331887974", "name": "Losanne", "id": "238907436", "slug": "losanne", "belong_city": "renens", "_id": {"$oid": "5905e52e78b83736b0db7093"}, "belong_city_id": "c311991", "lat": "46.540195451109"}
{"lon": "6.58871", "name": "Bourdonnette", "id": "9055075", "slug": "bourdonnette", "belong_city": "renens", "_id": {"$oid": "5905e52e78b83736b0db7094"}, "belong_city_id": "c311991", "lat": "46.52419"}
{"lon": "6.5890368484598", "name": "À Renens City.", "id": "862110134", "slug": "a-renens-city", "belong_city": "renens", "_id": {"$oid": "5905e52e78b83736b0db7095"}, "belong_city_id": "c311991", "lat": "46.535604131707"}
{"lon": "6.59129", "name": "La Nébuleuse", "id": "697085291", "slug": "la-nebuleuse", "belong_city": "renens", "_id": {"$oid": "5905e52e78b83736b0db7096"}, "belong_city_id": "c311991", "lat": "46.53237"}
{"lon": "6.5814049317372", "name": "Lausanne Renes", "id": "356148388", "slug": "lausanne-renes", "belong_city": "renens", "_id": {"$oid": "5905e52e78b83736b0db7097"}, "belong_city_id": "c311991", "lat": "46.535117551995"}
{"lon": "6.5982346", "name": "A Prilly", "id": "923532712", "slug": "a-prilly", "belong_city": "renens", "_id": {"$oid": "5905e52e78b83736b0db7098"}, "belong_city_id": "c311991", "lat": "46.53907342"}
{"lon": "6.6039671947907", "name": "Prilly-Malley, Switzerland", "id": "584404702", "slug": "prilly-malley-switzerland", "belong_city": "renens", "_id": {"$oid": "5905e52e78b83736b0db7099"}, "belong_city_id": "c311991", "lat": "46.527818724178"}
{"lon": "6.60743584", "name": "LE ZOO - MAD Club", "id": "388359742", "slug": "le-zoo-mad-club", "belong_city": "renens", "_id": {"$oid": "5905e52e78b83736b0db709a"}, "belong_city_id": "c311991", "lat": "46.52937038"}
{"lon": "6.58838", "name": "BB Grill - Renens", "id": "264171445", "slug": "bb-grill-renens", "belong_city": "renens", "_id": {"$oid": "5905e52e78b83736b0db709b"}, "belong_city_id": "c311991", "lat": "46.53203"}
{"lon": "6.59659385", "name": "Cimetiere Du Bois De Vaux", "id": "8701918", "slug": "cimetiere-du-bois-de-vaux", "belong_city": "renens", "_id": {"$oid": "5905e52e78b83736b0db709c"}, "belong_city_id": "c311991", "lat": "46.52172631"}
{"lon": "6.6078517935153", "name": "Swiss Alps", "id": "289311527", "slug": "swiss-alps", "belong_city": "renens", "_id": {"$oid": "5905e52e78b83736b0db709d"}, "belong_city_id": "c311991", "lat": "46.53472742368"}
{"lon": "6.5841794013977", "name": "HEC Lausanne", "id": "281645146", "slug": "hec-lausanne", "belong_city": "renens", "_id": {"$oid": "5905e52e78b83736b0db709e"}, "belong_city_id": "c311991", "lat": "46.521474310912"}
{"lon": "6.604703", "name": "Vallée de la Jeunesse", "id": "1026772412", "slug": "vallee-de-la-jeunesse", "belong_city": "renens", "_id": {"$oid": "5905e52e78b83736b0db709f"}, "belong_city_id": "c311991", "lat": "46.521061"}
{"lon": "6.6009228", "name": "Lets Go Fitness", "id": "1030423700", "slug": "lets-go-fitness", "belong_city": "renens", "_id": {"$oid": "5905e52e78b83736b0db70a0"}, "belong_city_id": "c311991", "lat": "46.5293767"}
{"lon": "6.5791969061357", "name": "Gare de Renens", "id": "30062", "slug": "gare-de-renens", "belong_city": "renens", "_id": {"$oid": "5905e52e78b83736b0db70a1"}, "belong_city_id": "c311991", "lat": "46.537035532523"}
{"lon": "8.75", "name": "Winterthur, Switzerland", "id": "234972236", "slug": "winterthur-switzerland", "belong_city": "winterthur", "_id": {"$oid": "5905e52e78b83736b0db70a2"}, "belong_city_id": "c312970", "lat": "47.5"}
{"lon": "8.7302876520572", "name": "Kunstmuseum Winterthur", "id": "5416699", "slug": "kunstmuseum-winterthur", "belong_city": "winterthur", "_id": {"$oid": "5905e52e78b83736b0db70a3"}, "belong_city_id": "c312970", "lat": "47.501608730485"}
{"lon": "8.75013812", "name": "Wintentur", "id": "561704306", "slug": "wintentur", "belong_city": "winterthur", "_id": {"$oid": "5905e52e78b83736b0db70a4"}, "belong_city_id": "c312970", "lat": "47.502280208333"}
{"lon": "8.7288951873779", "name": "Winterthurer-Musikfestwochen - Steinberggasse", "id": "297452860", "slug": "winterthurer-musikfestwochen-steinberggasse", "belong_city": "winterthur", "_id": {"$oid": "5905e52e78b83736b0db70a5"}, "belong_city_id": "c312970", "lat": "47.498343422524"}
{"lon": "8.725245638294", "name": "Gilgamesh - Shisha Bar & Lounge", "id": "9218023", "slug": "gilgamesh-shisha-bar-lounge", "belong_city": "winterthur", "_id": {"$oid": "5905e52e78b83736b0db70a6"}, "belong_city_id": "c312970", "lat": "47.499811683512"}
{"lon": "8.7380426811987", "name": "Fotomuseum Winterthur", "id": "1549733", "slug": "fotomuseum-winterthur", "belong_city": "winterthur", "_id": {"$oid": "5905e52e78b83736b0db70a7"}, "belong_city_id": "c312970", "lat": "47.495887987764"}
{"lon": "8.7430745860298", "name": "Goldenberg", "id": "2593458", "slug": "goldenberg", "belong_city": "winterthur", "_id": {"$oid": "5905e52e78b83736b0db70a8"}, "belong_city_id": "c312970", "lat": "47.504897484072"}
{"lon": "8.7262123231636", "name": "Winterthur Marktgasse", "id": "236952658", "slug": "winterthur-marktgasse", "belong_city": "winterthur", "_id": {"$oid": "5905e52e78b83736b0db70a9"}, "belong_city_id": "c312970", "lat": "47.498903700538"}
{"lon": "8.755315745", "name": "Oberi Video", "id": "982111661", "slug": "oberi-video", "belong_city": "winterthur", "_id": {"$oid": "5905e52e78b83736b0db70aa"}, "belong_city_id": "c312970", "lat": "47.5076287325"}
{"lon": "8.74833", "name": "Zielbau Arena", "id": "1016730191", "slug": "zielbau-arena", "belong_city": "winterthur", "_id": {"$oid": "5905e52e78b83736b0db70ab"}, "belong_city_id": "c312970", "lat": "47.4953"}
{"lon": "8.7276252662097", "name": "Theater Winterthur", "id": "61782", "slug": "theater-winterthur", "belong_city": "winterthur", "_id": {"$oid": "5905e52e78b83736b0db70ac"}, "belong_city_id": "c312970", "lat": "47.501802868916"}
{"lon": "8.7265153081263", "name": "ZHAW School of Management and Law", "id": "2085884", "slug": "zhaw-school-of-management-and-law", "belong_city": "winterthur", "_id": {"$oid": "5905e52e78b83736b0db70ad"}, "belong_city_id": "c312970", "lat": "47.502172072487"}
{"lon": "8.75723", "name": "Oberwinterthur", "id": "1027507771", "slug": "oberwinterthur", "belong_city": "winterthur", "_id": {"$oid": "5905e52e78b83736b0db70ae"}, "belong_city_id": "c312970", "lat": "47.49826"}
{"lon": "8.72833", "name": "Steinberggasse Winterthur", "id": "265173820", "slug": "steinberggasse-winterthur", "belong_city": "winterthur", "_id": {"$oid": "5905e52e78b83736b0db70af"}, "belong_city_id": "c312970", "lat": "47.49827"}
{"lon": "8.7264722587604", "name": "Casinotheater Winterthur", "id": "4507730", "slug": "casinotheater-winterthur", "belong_city": "winterthur", "_id": {"$oid": "5905e52e78b83736b0db70b0"}, "belong_city_id": "c312970", "lat": "47.499799148501"}
{"lon": "8.7250767750688", "name": "Albanifäst Winti", "id": "320458929", "slug": "albanifast-winti", "belong_city": "winterthur", "_id": {"$oid": "5905e52e78b83736b0db70b1"}, "belong_city_id": "c312970", "lat": "47.499260339511"}
{"lon": "8.7295694107336", "name": "Winterthur Altstadt", "id": "15378317", "slug": "winterthur-altstadt", "belong_city": "winterthur", "_id": {"$oid": "5905e52e78b83736b0db70b2"}, "belong_city_id": "c312970", "lat": "47.498372584213"}
{"lon": "8.72923", "name": "2nd Skin Tattoo & Piercing Winterthur", "id": "1015769071", "slug": "2nd-skin-tattoo-piercing-winterthur", "belong_city": "winterthur", "_id": {"$oid": "5905e52e78b83736b0db70b3"}, "belong_city_id": "c312970", "lat": "47.49982"}
{"lon": "8.7288840096267", "name": "Stadtpark Winterthur", "id": "14786018", "slug": "stadtpark-winterthur", "belong_city": "winterthur", "_id": {"$oid": "5905e52e78b83736b0db70b4"}, "belong_city_id": "c312970", "lat": "47.500758364592"}
{"lon": "8.75", "name": "Voando pelo mundo", "id": "582542601", "slug": "voando-pelo-mundo", "belong_city": "winterthur", "_id": {"$oid": "5905e52e78b83736b0db70b5"}, "belong_city_id": "c312970", "lat": "47.5"}
{"lon": "8.7390194444444", "name": "Fotomuseum Winterthur", "id": "238201264", "slug": "fotomuseum-winterthur", "belong_city": "winterthur", "_id": {"$oid": "5905e52e78b83736b0db70b6"}, "belong_city_id": "c312970", "lat": "47.496019444444"}
{"lon": "8.725142292091", "name": "Imperial Disco Club", "id": "414322555", "slug": "imperial-disco-club", "belong_city": "winterthur", "_id": {"$oid": "5905e52e78b83736b0db70b7"}, "belong_city_id": "c312970", "lat": "47.498411966667"}
{"lon": "8.7324245447153", "name": "Oktoberfest Winterthur", "id": "435718628", "slug": "oktoberfest-winterthur", "belong_city": "winterthur", "_id": {"$oid": "5905e52e78b83736b0db70b8"}, "belong_city_id": "c312970", "lat": "47.495157377505"}
{"lon": "8.7319004535675", "name": "Winti-Arena Public Viewing", "id": "305879043", "slug": "winti-arena-public-viewing", "belong_city": "winterthur", "_id": {"$oid": "5905e52e78b83736b0db70b9"}, "belong_city_id": "c312970", "lat": "47.495980665705"}
{"lon": "8.75277", "name": "Platinum Cars GmbH", "id": "1034780034", "slug": "platinum-cars-gmbh", "belong_city": "winterthur", "_id": {"$oid": "5905e52e78b83736b0db70ba"}, "belong_city_id": "c312970", "lat": "47.50067"}
{"lon": "8.7280598", "name": "Kantonsspital Winterthur KSW", "id": "282133360", "slug": "kantonsspital-winterthur-ksw", "belong_city": "winterthur", "_id": {"$oid": "5905e52e78b83736b0db70bb"}, "belong_city_id": "c312970", "lat": "47.5074387"}
{"lon": "8.7276816698716", "name": "FLAG CAP STORE", "id": "437848654", "slug": "flag-cap-store", "belong_city": "winterthur", "_id": {"$oid": "5905e52e78b83736b0db70bc"}, "belong_city_id": "c312970", "lat": "47.49915925856"}
{"lon": "8.72799", "name": "Reflection Bar & Bistro", "id": "1034224508", "slug": "reflection-bar-bistro", "belong_city": "winterthur", "_id": {"$oid": "5905e52e78b83736b0db70bd"}, "belong_city_id": "c312970", "lat": "47.4987"}
{"lon": "8.7311028654167", "name": "Tibits Winterthur", "id": "1773691", "slug": "tibits-winterthur", "belong_city": "winterthur", "_id": {"$oid": "5905e52e78b83736b0db70be"}, "belong_city_id": "c312970", "lat": "47.499978716111"}
{"lon": "8.7338828472059", "name": "Bfs Winterthur", "id": "503111098", "slug": "bfs-winterthur", "belong_city": "winterthur", "_id": {"$oid": "5905e52e78b83736b0db70bf"}, "belong_city_id": "c312970", "lat": "47.497100265294"}
{"lon": "8.72554", "name": "Hotel Banana City - Winterthur", "id": "270697928", "slug": "hotel-banana-city-winterthur", "belong_city": "winterthur", "_id": {"$oid": "5905e52e78b83736b0db70c0"}, "belong_city_id": "c312970", "lat": "47.50407"}
{"lon": "8.7480453792077", "name": "Eishalle Winterthur", "id": "247107850", "slug": "eishalle-winterthur", "belong_city": "winterthur", "_id": {"$oid": "5905e52e78b83736b0db70c1"}, "belong_city_id": "c312970", "lat": "47.495249293595"}
{"lon": "8.7327244385951", "name": "Park Hotel Winterthur / Bloom", "id": "286563483", "slug": "park-hotel-winterthur-bloom", "belong_city": "winterthur", "_id": {"$oid": "5905e52e78b83736b0db70c2"}, "belong_city_id": "c312970", "lat": "47.500916514426"}
{"lon": "8.73054", "name": "Outwear Store Winterthur", "id": "565667128", "slug": "outwear-store-winterthur", "belong_city": "winterthur", "_id": {"$oid": "5905e52e78b83736b0db70c3"}, "belong_city_id": "c312970", "lat": "47.49897"}
{"lon": "8.7528189", "name": "In der Küche.", "id": "719023236", "slug": "in-der-kuche", "belong_city": "winterthur", "_id": {"$oid": "5905e52e78b83736b0db70c4"}, "belong_city_id": "c312970", "lat": "47.5057915"}
{"lon": "8.7503922833333", "name": "Winthetur Swizerland", "id": "318239790", "slug": "winthetur-swizerland", "belong_city": "winterthur", "_id": {"$oid": "5905e52e78b83736b0db70c5"}, "belong_city_id": "c312970", "lat": "47.494452383333"}
{"lon": "8.7270315139298", "name": "Tres Amigos Winterthur", "id": "1804863", "slug": "tres-amigos-winterthur", "belong_city": "winterthur", "_id": {"$oid": "5905e52e78b83736b0db70c6"}, "belong_city_id": "c312970", "lat": "47.500771174026"}
{"lon": "8.743625", "name": "Aussichtspunkt Goldenberg", "id": "234830565", "slug": "aussichtspunkt-goldenberg", "belong_city": "winterthur", "_id": {"$oid": "5905e52e78b83736b0db70c7"}, "belong_city_id": "c312970", "lat": "47.504302"}
{"lon": "8.72935", "name": "ZHAW School of Engineering", "id": "269848601", "slug": "zhaw-school-of-engineering", "belong_city": "winterthur", "_id": {"$oid": "5905e52e78b83736b0db70c8"}, "belong_city_id": "c312970", "lat": "47.49728"}
{"lon": "8.7292174457743", "name": "Albani Music Club Winterthur", "id": "388111652", "slug": "albani-music-club-winterthur", "belong_city": "winterthur", "_id": {"$oid": "5905e52e78b83736b0db70c9"}, "belong_city_id": "c312970", "lat": "47.498352809778"}
{"lon": "8.72761", "name": "Fritz Lambada", "id": "247867625547553", "slug": "fritz-lambada", "belong_city": "winterthur", "_id": {"$oid": "5905e52e78b83736b0db70ca"}, "belong_city_id": "c312970", "lat": "47.50366"}
{"lon": "8.7433581455263", "name": "Goldenberg, Winterthur", "id": "255591281", "slug": "goldenberg-winterthur", "belong_city": "winterthur", "_id": {"$oid": "5905e52e78b83736b0db70cb"}, "belong_city_id": "c312970", "lat": "47.504619653575"}
{"lon": "8.7271414240738", "name": "Internationale Kurzfilmtage Winterthur", "id": "437095835", "slug": "internationale-kurzfilmtage-winterthur", "belong_city": "winterthur", "_id": {"$oid": "5905e52e78b83736b0db70cc"}, "belong_city_id": "c312970", "lat": "47.499661975163"}
{"lon": "8.73406", "name": "1000 miles away", "id": "1004566621", "slug": "1000-miles-away", "belong_city": "winterthur", "_id": {"$oid": "5905e52e78b83736b0db70cd"}, "belong_city_id": "c312970", "lat": "47.49007"}
{"lon": "8.72562", "name": "Fitnesspark Banane Winterthur", "id": "430352219", "slug": "fitnesspark-banane-winterthur", "belong_city": "winterthur", "_id": {"$oid": "5905e52e78b83736b0db70ce"}, "belong_city_id": "c312970", "lat": "47.5046899"}
{"lon": "8.74563", "name": "Hangar 11 Club / Winterthur", "id": "437227198", "slug": "hangar-11-club-winterthur", "belong_city": "winterthur", "_id": {"$oid": "5905e52e78b83736b0db70cf"}, "belong_city_id": "c312970", "lat": "47.49927"}
{"lon": "8.7321239200131", "name": "La Cyma", "id": "52092020", "slug": "la-cyma", "belong_city": "winterthur", "_id": {"$oid": "5905e52e78b83736b0db70d0"}, "belong_city_id": "c312970", "lat": "47.498330341922"}
{"lon": "8.72840498", "name": "Winterthurer Musikfestwochen", "id": "4412985", "slug": "winterthurer-musikfestwochen", "belong_city": "winterthur", "_id": {"$oid": "5905e52e78b83736b0db70d1"}, "belong_city_id": "c312970", "lat": "47.49829342"}
{"lon": "8.7110381834927", "name": "Wintherthur", "id": "370829530", "slug": "wintherthur", "belong_city": "winterthur töss", "_id": {"$oid": "5905e52e78b83736b0db70d2"}, "belong_city_id": "c312969", "lat": "47.484495633752"}
{"lon": "8.7006767075", "name": "Winterthur Dättnau", "id": "248421989", "slug": "winterthur-dattnau", "belong_city": "winterthur töss", "_id": {"$oid": "5905e52e78b83736b0db70d3"}, "belong_city_id": "c312969", "lat": "47.47958892"}
{"lon": "8.70608", "name": "Zentrum-Töss", "id": "31455944", "slug": "zentrum-toss", "belong_city": "winterthur töss", "_id": {"$oid": "5905e52e78b83736b0db70d4"}, "belong_city_id": "c312969", "lat": "47.4916"}
{"lon": "8.7001717", "name": "Neueschwanstein Schloss", "id": "457471183", "slug": "neueschwanstein-schloss", "belong_city": "winterthur töss", "_id": {"$oid": "5905e52e78b83736b0db70d5"}, "belong_city_id": "c312969", "lat": "47.4943003"}
{"lon": "8.70750695", "name": "Kimsesizler Ülkesi", "id": "1015078299", "slug": "kimsesizler-ulkesi", "belong_city": "winterthur töss", "_id": {"$oid": "5905e52e78b83736b0db70d6"}, "belong_city_id": "c312969", "lat": "47.47622785"}
{"lon": "8.6995396432953", "name": "Säntis Berg Schweiz", "id": "521130130", "slug": "santis-berg-schweiz", "belong_city": "winterthur töss", "_id": {"$oid": "5905e52e78b83736b0db70d7"}, "belong_city_id": "c312969", "lat": "47.479910214403"}
{"lon": "8.70578335513", "name": "Zurick City", "id": "270039175", "slug": "zurick-city", "belong_city": "winterthur töss", "_id": {"$oid": "5905e52e78b83736b0db70d8"}, "belong_city_id": "c312969", "lat": "47.4908785516"}
{"lon": "8.7056799", "name": "Schwimmbad Töss", "id": "28849161", "slug": "schwimmbad-toss", "belong_city": "winterthur töss", "_id": {"$oid": "5905e52e78b83736b0db70d9"}, "belong_city_id": "c312969", "lat": "47.48307"}
{"lon": "8.7040997", "name": "FirstGym24 - Winterthur", "id": "1021184062", "slug": "firstgym24-winterthur", "belong_city": "winterthur töss", "_id": {"$oid": "5905e52e78b83736b0db70da"}, "belong_city_id": "c312969", "lat": "47.4764519"}
{"lon": "8.7041", "name": "Royal Mangal", "id": "287968927", "slug": "royal-mangal", "belong_city": "winterthur töss", "_id": {"$oid": "5905e52e78b83736b0db70db"}, "belong_city_id": "c312969", "lat": "47.47645"}
{"lon": "8.7038", "name": "Millenium Beauty & Nails", "id": "1027154514", "slug": "millenium-beauty-nails", "belong_city": "winterthur töss", "_id": {"$oid": "5905e52e78b83736b0db70dc"}, "belong_city_id": "c312969", "lat": "47.48943"}
{"lon": "8.7088380055849", "name": "Töss Fluss", "id": "283162085", "slug": "toss-fluss", "belong_city": "winterthur töss", "_id": {"$oid": "5905e52e78b83736b0db70dd"}, "belong_city_id": "c312969", "lat": "47.481081736777"}
{"lon": "8.70608", "name": "Sehzade Shisha Winterthur", "id": "560203795", "slug": "sehzade-shisha-winterthur", "belong_city": "winterthur töss", "_id": {"$oid": "5905e52e78b83736b0db70de"}, "belong_city_id": "c312969", "lat": "47.4916"}
{"lon": "8.7029070058806", "name": "Porsche Zentrum Winterthur", "id": "1645593", "slug": "porsche-zentrum-winterthur", "belong_city": "winterthur töss", "_id": {"$oid": "5905e52e78b83736b0db70df"}, "belong_city_id": "c312969", "lat": "47.477077954096"}
{"lon": "8.7045868611443", "name": "THE VIEW - Club", "id": "283390354", "slug": "the-view-club", "belong_city": "winterthur töss", "_id": {"$oid": "5905e52e78b83736b0db70e0"}, "belong_city_id": "c312969", "lat": "47.476163325859"}
{"lon": "8.6996468203621", "name": "Dättnau @ Home", "id": "11934782", "slug": "dattnau-home", "belong_city": "winterthur töss", "_id": {"$oid": "5905e52e78b83736b0db70e1"}, "belong_city_id": "c312969", "lat": "47.482813015858"}
{"lon": "8.7045527134286", "name": "6a Plus Kletterhalle Töss", "id": "498613866", "slug": "6a-plus-kletterhalle-toss", "belong_city": "winterthur töss", "_id": {"$oid": "5905e52e78b83736b0db70e2"}, "belong_city_id": "c312969", "lat": "47.489089016"}
{"lon": "8.7015003", "name": "Europapark Rust", "id": "249884392", "slug": "europapark-rust", "belong_city": "winterthur töss", "_id": {"$oid": "5905e52e78b83736b0db70e3"}, "belong_city_id": "c312969", "lat": "47.4832987"}
{"lon": "8.7050104", "name": "Kletterhalle Winterthur", "id": "1022386042", "slug": "kletterhalle-winterthur", "belong_city": "winterthur töss", "_id": {"$oid": "5905e52e78b83736b0db70e4"}, "belong_city_id": "c312969", "lat": "47.4887009"}
{"lon": "8.69165808", "name": "Dättnau", "id": "1017502510", "slug": "dattnau", "belong_city": "winterthur töss", "_id": {"$oid": "5905e52e78b83736b0db70e5"}, "belong_city_id": "c312969", "lat": "47.48531756"}
{"lon": "8.70196", "name": "Nägelsee", "id": "260707799", "slug": "nagelsee", "belong_city": "winterthur töss", "_id": {"$oid": "5905e52e78b83736b0db70e6"}, "belong_city_id": "c312969", "lat": "47.49332"}
{"lon": "8.69807938363", "name": "BMX Bahn Winterthur", "id": "283430962", "slug": "bmx-bahn-winterthur", "belong_city": "winterthur töss", "_id": {"$oid": "5905e52e78b83736b0db70e7"}, "belong_city_id": "c312969", "lat": "47.476747300332"}
{"lon": "8.7056886388554", "name": "Rieter AG", "id": "372636781", "slug": "rieter-ag", "belong_city": "winterthur töss", "_id": {"$oid": "5905e52e78b83736b0db70e8"}, "belong_city_id": "c312969", "lat": "47.487352791327"}
{"lon": "8.7041", "name": "Restaurant Köz Mangal", "id": "1027864868", "slug": "restaurant-koz-mangal", "belong_city": "winterthur töss", "_id": {"$oid": "5905e52e78b83736b0db70e9"}, "belong_city_id": "c312969", "lat": "47.47645"}
{"lon": "8.7062534276518", "name": "Shishabar Töss", "id": "771316340", "slug": "shishabar-toss", "belong_city": "winterthur töss", "_id": {"$oid": "5905e52e78b83736b0db70ea"}, "belong_city_id": "c312969", "lat": "47.491362198284"}
{"lon": "8.7076901328571", "name": "Hasliberg", "id": "873442391", "slug": "hasliberg", "belong_city": "winterthur töss", "_id": {"$oid": "5905e52e78b83736b0db70eb"}, "belong_city_id": "c312969", "lat": "47.482967837143"}
{"lon": "8.70798149", "name": "Katrins Wohnsitz", "id": "295688557441928", "slug": "katrins-wohnsitz", "belong_city": "winterthur töss", "_id": {"$oid": "5905e52e78b83736b0db70ec"}, "belong_city_id": "c312969", "lat": "47.48348342"}
{"lon": "8.68059", "name": "Beauty Allure", "id": "1818007825108436", "slug": "beauty-allure", "belong_city": "winterthur töss", "_id": {"$oid": "5905e52e78b83736b0db70ed"}, "belong_city_id": "c312969", "lat": "47.50712"}
{"lon": "8.7060583407143", "name": "Hotel Töss", "id": "1015754263", "slug": "hotel-toss", "belong_city": "winterthur töss", "_id": {"$oid": "5905e52e78b83736b0db70ee"}, "belong_city_id": "c312969", "lat": "47.491352069643"}
{"lon": "8.6813040462393", "name": "Bahnhof Wülflingen", "id": "15674513", "slug": "bahnhof-wulflingen", "belong_city": "winterthur töss", "_id": {"$oid": "5905e52e78b83736b0db70ef"}, "belong_city_id": "c312969", "lat": "47.506539388699"}
{"lon": "8.70215", "name": "Töss", "id": "990362007676278", "slug": "toss", "belong_city": "winterthur töss", "_id": {"$oid": "5905e52e78b83736b0db70f0"}, "belong_city_id": "c312969", "lat": "47.4789"}
{"lon": "8.68186222", "name": "Schulhaus Wyden, Wülflingen", "id": "385584196", "slug": "schulhaus-wyden-wulflingen", "belong_city": "winterthur töss", "_id": {"$oid": "5905e52e78b83736b0db70f1"}, "belong_city_id": "c312969", "lat": "47.50674787"}
{"lon": "8.6971397", "name": "CrossFit Vitudurum", "id": "1019247120", "slug": "crossfit-vitudurum", "belong_city": "winterthur töss", "_id": {"$oid": "5905e52e78b83736b0db70f2"}, "belong_city_id": "c312969", "lat": "47.4846802"}
{"lon": "8.70586", "name": "Goldenberg Capital Group", "id": "1026449044", "slug": "goldenberg-capital-group", "belong_city": "winterthur töss", "_id": {"$oid": "5905e52e78b83736b0db70f3"}, "belong_city_id": "c312969", "lat": "47.49073"}
{"lon": "8.70608", "name": "Hotel Töss Winterthur", "id": "578131433", "slug": "hotel-toss-winterthur", "belong_city": "winterthur töss", "_id": {"$oid": "5905e52e78b83736b0db70f4"}, "belong_city_id": "c312969", "lat": "47.4916"}
{"lon": "8.7041", "name": "Boxing Academy Jetishi", "id": "203790130044288", "slug": "boxing-academy-jetishi", "belong_city": "winterthur töss", "_id": {"$oid": "5905e52e78b83736b0db70f5"}, "belong_city_id": "c312969", "lat": "47.47645"}
{"lon": "8.71286653", "name": "Winterthur Töss ZH", "id": "286519484", "slug": "winterthur-toss-zh", "belong_city": "winterthur töss", "_id": {"$oid": "5905e52e78b83736b0db70f6"}, "belong_city_id": "c312969", "lat": "47.48700529"}
{"lon": "8.6869143612433", "name": "Dättnauer Weiher", "id": "531721021", "slug": "dattnauer-weiher", "belong_city": "winterthur töss", "_id": {"$oid": "5905e52e78b83736b0db70f7"}, "belong_city_id": "c312969", "lat": "47.488848781225"}
{"lon": "8.66551", "name": "Kulturort Galerie Weiertal", "id": "900230367", "slug": "kulturort-galerie-weiertal", "belong_city": "winterthur töss", "_id": {"$oid": "5905e52e78b83736b0db70f8"}, "belong_city_id": "c312969", "lat": "47.49973"}
{"lon": "8.68098", "name": "Winterthur Wülflingen railway station", "id": "838591984", "slug": "winterthur-wulflingen-railway-station", "belong_city": "winterthur töss", "_id": {"$oid": "5905e52e78b83736b0db70f9"}, "belong_city_id": "c312969", "lat": "47.5065"}
{"lon": "8.69931", "name": "Cindys Hair&Nail Boutique.", "id": "165984543444258", "slug": "cindys-hairnail-boutique", "belong_city": "winterthur töss", "_id": {"$oid": "5905e52e78b83736b0db70fa"}, "belong_city_id": "c312969", "lat": "47.47809"}
{"lon": "8.7048490720463", "name": "Dünya", "id": "974431911", "slug": "dunya", "belong_city": "winterthur töss", "_id": {"$oid": "5905e52e78b83736b0db70fb"}, "belong_city_id": "c312969", "lat": "47.477154445861"}
{"lon": "8.70395", "name": "AMAG", "id": "1014891927", "slug": "amag", "belong_city": "winterthur töss", "_id": {"$oid": "5905e52e78b83736b0db70fc"}, "belong_city_id": "c312969", "lat": "47.47767"}
{"lon": "8.70289069", "name": "Cafe Restaurant Lienhard", "id": "4032731", "slug": "cafe-restaurant-lienhard", "belong_city": "winterthur töss", "_id": {"$oid": "5905e52e78b83736b0db70fd"}, "belong_city_id": "c312969", "lat": "47.488894875"}
{"lon": "8.6869", "name": "BMX Track Winterthur/Dättnau", "id": "1012355946", "slug": "bmx-track-winterthurdattnau", "belong_city": "winterthur töss", "_id": {"$oid": "5905e52e78b83736b0db70fe"}, "belong_city_id": "c312969", "lat": "47.49166"}
{"lon": "8.699486", "name": "BMX Club Winterthur", "id": "422627534", "slug": "bmx-club-winterthur", "belong_city": "winterthur töss", "_id": {"$oid": "5905e52e78b83736b0db70ff"}, "belong_city_id": "c312969", "lat": "47.4774773"}
{"lon": "8.69816", "name": "Tesla Service Winterthur", "id": "1027619460", "slug": "tesla-service-winterthur", "belong_city": "winterthur töss", "_id": {"$oid": "5905e52e78b83736b0db7100"}, "belong_city_id": "c312969", "lat": "47.49629"}
{"lon": "8.70409", "name": "freshcom", "id": "864383536", "slug": "freshcom", "belong_city": "winterthur töss", "_id": {"$oid": "5905e52e78b83736b0db7101"}, "belong_city_id": "c312969", "lat": "47.48501"}
{"lon": "8.51667", "name": "Zug, Switzerland", "id": "229238335", "slug": "zug-switzerland", "belong_city": "zug", "_id": {"$oid": "5905e52e78b83736b0db7102"}, "belong_city_id": "c313034", "lat": "47.1667"}
{"lon": "8.5115251131435", "name": "Lake Zug Switzerland", "id": "305388249", "slug": "lake-zug-switzerland", "belong_city": "zug", "_id": {"$oid": "5905e52e78b83736b0db7103"}, "belong_city_id": "c313034", "lat": "47.172487922988"}
{"lon": "8.507778", "name": "Bossard Arena", "id": "222836438", "slug": "bossard-arena", "belong_city": "zug", "_id": {"$oid": "5905e52e78b83736b0db7104"}, "belong_city_id": "c313034", "lat": "47.176944"}
{"lon": "8.5143042787382", "name": "Zug am See..*_*.", "id": "747478585", "slug": "zug-am-see_", "belong_city": "zug", "_id": {"$oid": "5905e52e78b83736b0db7105"}, "belong_city_id": "c313034", "lat": "47.168600436836"}
{"lon": "8.5142895010874", "name": "am Zugersee <3", "id": "215894895", "slug": "am-zugersee-3", "belong_city": "zug", "_id": {"$oid": "5905e52e78b83736b0db7106"}, "belong_city_id": "c313034", "lat": "47.168237846868"}
{"lon": "8.517590196", "name": "Zug", "id": "9214362", "slug": "zug", "belong_city": "zug", "_id": {"$oid": "5905e52e78b83736b0db7107"}, "belong_city_id": "c313034", "lat": "47.180296485714"}
{"lon": "8.50475", "name": "Hafenrestaurant, Zug", "id": "235495511", "slug": "hafenrestaurant-zug", "belong_city": "zug", "_id": {"$oid": "5905e52e78b83736b0db7108"}, "belong_city_id": "c313034", "lat": "47.17277"}
{"lon": "8.5266949814695", "name": "Kanton Zug", "id": "235025192", "slug": "kanton-zug", "belong_city": "zug", "_id": {"$oid": "5905e52e78b83736b0db7109"}, "belong_city_id": "c313034", "lat": "47.170903110218"}
{"lon": "8.51906827887", "name": "Switzerland , Zug .", "id": "260911631", "slug": "switzerland-zug", "belong_city": "zug", "_id": {"$oid": "5905e52e78b83736b0db710a"}, "belong_city_id": "c313034", "lat": "47.1794295107"}
{"lon": "8.5138143452932", "name": "Zugersee", "id": "4008666", "slug": "zugersee", "belong_city": "zug", "_id": {"$oid": "5905e52e78b83736b0db710b"}, "belong_city_id": "c313034", "lat": "47.170008351935"}
{"lon": "8.51702", "name": "Metalli Zug", "id": "215033140", "slug": "metalli-zug", "belong_city": "zug", "_id": {"$oid": "5905e52e78b83736b0db710c"}, "belong_city_id": "c313034", "lat": "47.17325"}
{"lon": "8.51534", "name": "Altstadt Zug", "id": "261831135", "slug": "altstadt-zug", "belong_city": "zug", "_id": {"$oid": "5905e52e78b83736b0db710d"}, "belong_city_id": "c313034", "lat": "47.16633"}
{"lon": "8.51536", "name": "Zug", "id": "1017841029", "slug": "zug", "belong_city": "zug", "_id": {"$oid": "5905e52e78b83736b0db710e"}, "belong_city_id": "c313034", "lat": "47.17333"}
{"lon": "8.5075123399042", "name": "Oberwil Am See", "id": "237745987", "slug": "oberwil-am-see", "belong_city": "zug", "_id": {"$oid": "5905e52e78b83736b0db710f"}, "belong_city_id": "c313034", "lat": "47.149698545016"}
{"lon": "8.52024", "name": "Nail Contact", "id": "428922301", "slug": "nail-contact", "belong_city": "zug", "_id": {"$oid": "5905e52e78b83736b0db7110"}, "belong_city_id": "c313034", "lat": "47.1830799"}
{"lon": "8.51732259", "name": "Zug Altstadt", "id": "235058048", "slug": "zug-altstadt", "belong_city": "zug", "_id": {"$oid": "5905e52e78b83736b0db7111"}, "belong_city_id": "c313034", "lat": "47.16652584"}
{"lon": "8.51556", "name": "Zug railway station", "id": "215836780", "slug": "zug-railway-station", "belong_city": "zug", "_id": {"$oid": "5905e52e78b83736b0db7112"}, "belong_city_id": "c313034", "lat": "47.1742"}
{"lon": "8.507778", "name": "Bossard Arena", "id": "428498944", "slug": "bossard-arena", "belong_city": "zug", "_id": {"$oid": "5905e52e78b83736b0db7113"}, "belong_city_id": "c313034", "lat": "47.176944"}
{"lon": "8.5019280402142", "name": "Strandbad Zug", "id": "3289446", "slug": "strandbad-zug", "belong_city": "zug", "_id": {"$oid": "5905e52e78b83736b0db7114"}, "belong_city_id": "c313034", "lat": "47.175123385181"}
{"lon": "8.5138407334884", "name": "Theater Casino Zug", "id": "256998", "slug": "theater-casino-zug", "belong_city": "zug", "_id": {"$oid": "5905e52e78b83736b0db7115"}, "belong_city_id": "c313034", "lat": "47.164429330769"}
{"lon": "8.51556", "name": "Bahnhof Zug", "id": "859564", "slug": "bahnhof-zug", "belong_city": "zug", "_id": {"$oid": "5905e52e78b83736b0db7116"}, "belong_city_id": "c313034", "lat": "47.1742"}
{"lon": "8.5190606117249", "name": "Parkhotel Zug", "id": "257643838", "slug": "parkhotel-zug", "belong_city": "zug", "_id": {"$oid": "5905e52e78b83736b0db7117"}, "belong_city_id": "c313034", "lat": "47.172254874027"}
{"lon": "8.5341024398804", "name": "Institut Montana Zugerberg", "id": "402354747", "slug": "institut-montana-zugerberg", "belong_city": "zug", "_id": {"$oid": "5905e52e78b83736b0db7118"}, "belong_city_id": "c313034", "lat": "47.144313707811"}
{"lon": "8.52024", "name": "Nail Contact, Www.Nailcontact.Com", "id": "274647142", "slug": "nail-contact-wwwnailcontactcom", "belong_city": "zug", "_id": {"$oid": "5905e52e78b83736b0db7119"}, "belong_city_id": "c313034", "lat": "47.1830799"}
{"lon": "8.5139", "name": "Schwimmbad Seeliken", "id": "228388813", "slug": "schwimmbad-seeliken", "belong_city": "zug", "_id": {"$oid": "5905e52e78b83736b0db711a"}, "belong_city_id": "c313034", "lat": "47.1645899"}
{"lon": "8.5075069238462", "name": "Bossard Arena", "id": "237201", "slug": "bossard-arena", "belong_city": "zug", "_id": {"$oid": "5905e52e78b83736b0db711b"}, "belong_city_id": "c313034", "lat": "47.176804836667"}
{"lon": "8.51424515244", "name": "Zug Lake", "id": "235819246", "slug": "zug-lake", "belong_city": "zug", "_id": {"$oid": "5905e52e78b83736b0db711c"}, "belong_city_id": "c313034", "lat": "47.157383448"}
{"lon": "8.5142433265427", "name": "Ristorante San Marco Zug", "id": "2508155", "slug": "ristorante-san-marco-zug", "belong_city": "zug", "_id": {"$oid": "5905e52e78b83736b0db711d"}, "belong_city_id": "c313034", "lat": "47.166376653248"}
{"lon": "8.5369021970031", "name": "Zugerberg 1039m", "id": "630806747", "slug": "zugerberg-1039m", "belong_city": "zug", "_id": {"$oid": "5905e52e78b83736b0db711e"}, "belong_city_id": "c313034", "lat": "47.143616320728"}
{"lon": "8.5165501", "name": "Fitnesspark", "id": "3432587", "slug": "fitnesspark", "belong_city": "zug", "_id": {"$oid": "5905e52e78b83736b0db711f"}, "belong_city_id": "c313034", "lat": "47.1748085"}
{"lon": "8.51499875", "name": "Seepromenade Zug", "id": "97483430", "slug": "seepromenade-zug", "belong_city": "zug", "_id": {"$oid": "5905e52e78b83736b0db7120"}, "belong_city_id": "c313034", "lat": "47.172954433333"}
{"lon": "8.5163888888889", "name": "Zug", "id": "3225239", "slug": "zug", "belong_city": "zug", "_id": {"$oid": "5905e52e78b83736b0db7121"}, "belong_city_id": "c313034", "lat": "47.169166666667"}
{"lon": "8.5329895459462", "name": "Zugerberg", "id": "234293357", "slug": "zugerberg", "belong_city": "zug", "_id": {"$oid": "5905e52e78b83736b0db7122"}, "belong_city_id": "c313034", "lat": "47.143872477517"}
{"lon": "8.5068970619101", "name": "Skylounge Zug", "id": "375988624", "slug": "skylounge-zug", "belong_city": "zug", "_id": {"$oid": "5905e52e78b83736b0db7123"}, "belong_city_id": "c313034", "lat": "47.176036175597"}
{"lon": "8.5166768672414", "name": "Negishi Metalli", "id": "859984611", "slug": "negishi-metalli", "belong_city": "zug", "_id": {"$oid": "5905e52e78b83736b0db7124"}, "belong_city_id": "c313034", "lat": "47.172079879655"}
{"lon": "8.5142954771617", "name": "Lake Of Zug", "id": "776177037", "slug": "lake-of-zug", "belong_city": "zug", "_id": {"$oid": "5905e52e78b83736b0db7125"}, "belong_city_id": "c313034", "lat": "47.167750583141"}
{"lon": "8.5070432533333", "name": "Zug Oberwil", "id": "1023239751", "slug": "zug-oberwil", "belong_city": "zug", "_id": {"$oid": "5905e52e78b83736b0db7126"}, "belong_city_id": "c313034", "lat": "47.144826263333"}
{"lon": "8.51539590983", "name": "Zug - Schweiz", "id": "270564307", "slug": "zug-schweiz", "belong_city": "zug", "_id": {"$oid": "5905e52e78b83736b0db7127"}, "belong_city_id": "c313034", "lat": "47.1740574197"}
{"lon": "8.5212", "name": "City Garden Hotel & CU Restaurant", "id": "10095452", "slug": "city-garden-hotel-cu-restaurant", "belong_city": "zug", "_id": {"$oid": "5905e52e78b83736b0db7128"}, "belong_city_id": "c313034", "lat": "47.17317"}
{"lon": "8.4954978122004", "name": "Brüggli ;)", "id": "3598437", "slug": "bruggli", "belong_city": "zug", "_id": {"$oid": "5905e52e78b83736b0db7129"}, "belong_city_id": "c313034", "lat": "47.176870595295"}
{"lon": "8.517204", "name": "Starbucks Switzerland", "id": "221564246", "slug": "starbucks-switzerland", "belong_city": "zug", "_id": {"$oid": "5905e52e78b83736b0db712a"}, "belong_city_id": "c313034", "lat": "47.173387"}
{"lon": "8.51591", "name": "Style of Zug", "id": "268940947", "slug": "style-of-zug", "belong_city": "zug", "_id": {"$oid": "5905e52e78b83736b0db712b"}, "belong_city_id": "c313034", "lat": "47.16743"}
{"lon": "8.5067499168037", "name": "Eichwaldstrasse 12, 6300 Zug", "id": "259666350741715", "slug": "eichwaldstrasse-12-6300-zug", "belong_city": "zug", "_id": {"$oid": "5905e52e78b83736b0db712c"}, "belong_city_id": "c313034", "lat": "47.181831124029"}
{"lon": "8.50481", "name": "Yacht Club Zug", "id": "271787241", "slug": "yacht-club-zug", "belong_city": "zug", "_id": {"$oid": "5905e52e78b83736b0db712d"}, "belong_city_id": "c313034", "lat": "47.17303"}
{"lon": "8.5163970167356", "name": "Lago Di Zugo", "id": "263783609", "slug": "lago-di-zugo", "belong_city": "zug", "_id": {"$oid": "5905e52e78b83736b0db712e"}, "belong_city_id": "c313034", "lat": "47.167211258043"}
{"lon": "8.5052185324452", "name": "Zuger See", "id": "319230866", "slug": "zuger-see", "belong_city": "zug", "_id": {"$oid": "5905e52e78b83736b0db712f"}, "belong_city_id": "c313034", "lat": "47.172457315355"}
{"lon": "8.5327506065369", "name": "ZugerbergTrail - IG Mountainbike Zug", "id": "833534465", "slug": "zugerbergtrail-ig-mountainbike-zug", "belong_city": "zug", "_id": {"$oid": "5905e52e78b83736b0db7130"}, "belong_city_id": "c313034", "lat": "47.143744518339"}
{"lon": "8.5192608957195", "name": "Hugo Boss", "id": "257606002", "slug": "hugo-boss", "belong_city": "zug", "_id": {"$oid": "5905e52e78b83736b0db7131"}, "belong_city_id": "c313034", "lat": "47.181227819766"}
{"lon": "6.85", "name": "Vevey, Switzerland", "id": "213011737", "slug": "vevey-switzerland", "belong_city": "vevey", "_id": {"$oid": "5905e52e78b83736b0db7132"}, "belong_city_id": "c312801", "lat": "46.45"}
{"lon": "6.8429964810336", "name": "Bord Du Lac Vevey", "id": "213133214", "slug": "bord-du-lac-vevey", "belong_city": "vevey", "_id": {"$oid": "5905e52e78b83736b0db7133"}, "belong_city_id": "c312801", "lat": "46.459010151969"}
{"lon": "6.84992", "name": "Vevey, Montreux Riviera, Switzerland", "id": "288950595", "slug": "vevey-montreux-riviera-switzerland", "belong_city": "vevey", "_id": {"$oid": "5905e52e78b83736b0db7134"}, "belong_city_id": "c312801", "lat": "46.45821"}
{"lon": "6.8421135697376", "name": "Vevey Swiss", "id": "250352328", "slug": "vevey-swiss", "belong_city": "vevey", "_id": {"$oid": "5905e52e78b83736b0db7135"}, "belong_city_id": "c312801", "lat": "46.461755631956"}
{"lon": "6.8479448054853", "name": "Hôtel des Trois Couronnes", "id": "2188963", "slug": "hotel-des-trois-couronnes", "belong_city": "vevey", "_id": {"$oid": "5905e52e78b83736b0db7136"}, "belong_city_id": "c312801", "lat": "46.45821587647"}
{"lon": "6.8421727992396", "name": "Vevey", "id": "2513084", "slug": "vevey", "belong_city": "vevey", "_id": {"$oid": "5905e52e78b83736b0db7137"}, "belong_city_id": "c312801", "lat": "46.462787381144"}
{"lon": "6.8520371124689", "name": "Grand Hotel du Lac Vevey", "id": "3640638", "slug": "grand-hotel-du-lac-vevey", "belong_city": "vevey", "_id": {"$oid": "5905e52e78b83736b0db7138"}, "belong_city_id": "c312801", "lat": "46.457468333833"}
{"lon": "6.8458297552963", "name": "Vevey - -Suisse / Lac Leman", "id": "799960026", "slug": "vevey-suisse-lac-leman", "belong_city": "vevey", "_id": {"$oid": "5905e52e78b83736b0db7139"}, "belong_city_id": "c312801", "lat": "46.458105900395"}
{"lon": "6.843807689035", "name": "Lausanne, Suisse", "id": "254952341", "slug": "lausanne-suisse", "belong_city": "vevey", "_id": {"$oid": "5905e52e78b83736b0db713a"}, "belong_city_id": "c312801", "lat": "46.460575972577"}
{"lon": "6.8555017124378", "name": "Port De La Tour De Peilz", "id": "391581361", "slug": "port-de-la-tour-de-peilz", "belong_city": "vevey", "_id": {"$oid": "5905e52e78b83736b0db713b"}, "belong_city_id": "c312801", "lat": "46.452961739197"}
{"lon": "6.840340762955", "name": "Lac Leman", "id": "296912003", "slug": "lac-leman", "belong_city": "vevey", "_id": {"$oid": "5905e52e78b83736b0db713c"}, "belong_city_id": "c312801", "lat": "46.425807826198"}
{"lon": "6.83525", "name": "Nestlé Headquarters", "id": "213070998", "slug": "nestle-headquarters", "belong_city": "vevey", "_id": {"$oid": "5905e52e78b83736b0db713d"}, "belong_city_id": "c312801", "lat": "46.46588"}
{"lon": "6.8412166072151", "name": "Images Vevey", "id": "400586166", "slug": "images-vevey", "belong_city": "vevey", "_id": {"$oid": "5905e52e78b83736b0db713e"}, "belong_city_id": "c312801", "lat": "46.459803060776"}
{"lon": "6.8419119620938", "name": "Vevey Plage", "id": "939747", "slug": "vevey-plage", "belong_city": "vevey", "_id": {"$oid": "5905e52e78b83736b0db713f"}, "belong_city_id": "c312801", "lat": "46.459241506349"}
{"lon": "6.8463531", "name": "Alimentarium", "id": "219355619", "slug": "alimentarium", "belong_city": "vevey", "_id": {"$oid": "5905e52e78b83736b0db7140"}, "belong_city_id": "c312801", "lat": "46.4582354"}
{"lon": "6.84185725266", "name": "Montreux City", "id": "228509718", "slug": "montreux-city", "belong_city": "vevey", "_id": {"$oid": "5905e52e78b83736b0db7141"}, "belong_city_id": "c312801", "lat": "46.46617014"}
{"lon": "6.847025764952", "name": "Ze Fork", "id": "379653225", "slug": "ze-fork", "belong_city": "vevey", "_id": {"$oid": "5905e52e78b83736b0db7142"}, "belong_city_id": "c312801", "lat": "46.458120561463"}
{"lon": "6.8431434172207", "name": "Gare de Vevey", "id": "641207", "slug": "gare-de-vevey", "belong_city": "vevey", "_id": {"$oid": "5905e52e78b83736b0db7143"}, "belong_city_id": "c312801", "lat": "46.462832712761"}
{"lon": "6.84497", "name": "Nest", "id": "1743172579235621", "slug": "nest", "belong_city": "vevey", "_id": {"$oid": "5905e52e78b83736b0db7144"}, "belong_city_id": "c312801", "lat": "46.46531"}
{"lon": "6.84272", "name": "Place du Marché (Vevey)", "id": "236847949", "slug": "place-du-marche-vevey", "belong_city": "vevey", "_id": {"$oid": "5905e52e78b83736b0db7145"}, "belong_city_id": "c312801", "lat": "46.46043"}
{"lon": "6.84115", "name": "Manor - Vevey", "id": "234369627", "slug": "manor-vevey", "belong_city": "vevey", "_id": {"$oid": "5905e52e78b83736b0db7146"}, "belong_city_id": "c312801", "lat": "46.46299"}
{"lon": "6.8387169432832", "name": "Lac Leman", "id": "247376114", "slug": "lac-leman", "belong_city": "vevey", "_id": {"$oid": "5905e52e78b83736b0db7147"}, "belong_city_id": "c312801", "lat": "46.465212220056"}
{"lon": "6.844728206724", "name": "KIZUKU Aménagement et décoration dintérieur - Interior design", "id": "250534446", "slug": "kizuku-amenagement-et-decoration-dinterieur-interior-design", "belong_city": "vevey", "_id": {"$oid": "5905e52e78b83736b0db7148"}, "belong_city_id": "c312801", "lat": "46.45888106765"}
{"lon": "6.8463689163555", "name": "Vevey  - Suiça", "id": "226346264", "slug": "vevey-suica", "belong_city": "vevey", "_id": {"$oid": "5905e52e78b83736b0db7149"}, "belong_city_id": "c312801", "lat": "46.467778222714"}
{"lon": "6.8423562900772", "name": "Place du Marché", "id": "110504", "slug": "place-du-marche", "belong_city": "vevey", "_id": {"$oid": "5905e52e78b83736b0db714a"}, "belong_city_id": "c312801", "lat": "46.459546430096"}
{"lon": "6.8521518258065", "name": "RKC | Rocking Chair", "id": "241590389", "slug": "rkc-rocking-chair", "belong_city": "vevey", "_id": {"$oid": "5905e52e78b83736b0db714b"}, "belong_city_id": "c312801", "lat": "46.4718840874"}
{"lon": "6.845771621897", "name": "Lake Of Geneva - Vevey", "id": "557498922", "slug": "lake-of-geneva-vevey", "belong_city": "vevey", "_id": {"$oid": "5905e52e78b83736b0db714c"}, "belong_city_id": "c312801", "lat": "46.458065354079"}
{"lon": "6.8463078494673", "name": "Alimentarium", "id": "1705849", "slug": "alimentarium", "belong_city": "vevey", "_id": {"$oid": "5905e52e78b83736b0db714d"}, "belong_city_id": "c312801", "lat": "46.458288059405"}
{"lon": "6.84318", "name": "Starbucks Switzerland", "id": "237022765", "slug": "starbucks-switzerland", "belong_city": "vevey", "_id": {"$oid": "5905e52e78b83736b0db714e"}, "belong_city_id": "c312801", "lat": "46.46256"}
{"lon": "6.8555017124378", "name": "Château La Tour-de-Peilz", "id": "7704910", "slug": "chateau-la-tour-de-peilz", "belong_city": "vevey", "_id": {"$oid": "5905e52e78b83736b0db714f"}, "belong_city_id": "c312801", "lat": "46.452961739197"}
{"lon": "6.8511391768184", "name": "Maison et Objet", "id": "391326134", "slug": "maison-et-objet", "belong_city": "vevey", "_id": {"$oid": "5905e52e78b83736b0db7150"}, "belong_city_id": "c312801", "lat": "46.458129787387"}
{"lon": "6.84388", "name": "Lowkey Studio", "id": "320090410", "slug": "lowkey-studio", "belong_city": "vevey", "_id": {"$oid": "5905e52e78b83736b0db7151"}, "belong_city_id": "c312801", "lat": "46.46199"}
{"lon": "6.8452902", "name": "Musée Jenisch Vevey", "id": "282618125", "slug": "musee-jenisch-vevey", "belong_city": "vevey", "_id": {"$oid": "5905e52e78b83736b0db7152"}, "belong_city_id": "c312801", "lat": "46.4614906"}
{"lon": "6.84436", "name": "Boutique Topdeck", "id": "259035604", "slug": "boutique-topdeck", "belong_city": "vevey", "_id": {"$oid": "5905e52e78b83736b0db7153"}, "belong_city_id": "c312801", "lat": "46.46045"}
{"lon": "6.8377884155889", "name": "CEPV", "id": "41523919", "slug": "cepv", "belong_city": "vevey", "_id": {"$oid": "5905e52e78b83736b0db7154"}, "belong_city_id": "c312801", "lat": "46.461711461562"}
{"lon": "6.85", "name": "Corsier-sur-Vevey", "id": "234876248", "slug": "corsier-sur-vevey", "belong_city": "vevey", "_id": {"$oid": "5905e52e78b83736b0db7155"}, "belong_city_id": "c312801", "lat": "46.466666666667"}
{"lon": "6.8472", "name": "La Fourchette", "id": "4484835", "slug": "la-fourchette", "belong_city": "vevey", "_id": {"$oid": "5905e52e78b83736b0db7156"}, "belong_city_id": "c312801", "lat": "46.45798"}
{"lon": "6.8412517011229", "name": "Vevey Lakeside", "id": "239749596", "slug": "vevey-lakeside", "belong_city": "vevey", "_id": {"$oid": "5905e52e78b83736b0db7157"}, "belong_city_id": "c312801", "lat": "46.459051505706"}
{"lon": "6.85569", "name": "La-Tour-de-Peilz, Suisse", "id": "219121943", "slug": "la-tour-de-peilz-suisse", "belong_city": "vevey", "_id": {"$oid": "5905e52e78b83736b0db7158"}, "belong_city_id": "c312801", "lat": "46.454"}
{"lon": "6.8430151828603", "name": "ASTRA HOTEL VEVEY (Montreux Riviera Switzerland)", "id": "235174462", "slug": "astra-hotel-vevey-montreux-riviera-switzerland", "belong_city": "vevey", "_id": {"$oid": "5905e52e78b83736b0db7159"}, "belong_city_id": "c312801", "lat": "46.462596"}
{"lon": "6.8426719829439", "name": "Parc Charlie Chaplin", "id": "216025537", "slug": "parc-charlie-chaplin", "belong_city": "vevey", "_id": {"$oid": "5905e52e78b83736b0db715a"}, "belong_city_id": "c312801", "lat": "46.469590092514"}
{"lon": "6.8374350151666", "name": "Lac De Vevey", "id": "302699378", "slug": "lac-de-vevey", "belong_city": "vevey", "_id": {"$oid": "5905e52e78b83736b0db715b"}, "belong_city_id": "c312801", "lat": "46.461513241426"}
{"lon": "6.8474898", "name": "KJU", "id": "879160348", "slug": "kju", "belong_city": "vevey", "_id": {"$oid": "5905e52e78b83736b0db715c"}, "belong_city_id": "c312801", "lat": "46.4580498"}
{"lon": "6.8449395", "name": "Place Statue Charlie Chaplin", "id": "260856179", "slug": "place-statue-charlie-chaplin", "belong_city": "vevey", "_id": {"$oid": "5905e52e78b83736b0db715d"}, "belong_city_id": "c312801", "lat": "46.4582201"}
{"lon": "6.84107", "name": "Nestle HQ in Vevey", "id": "267335255", "slug": "nestle-hq-in-vevey", "belong_city": "vevey", "_id": {"$oid": "5905e52e78b83736b0db715e"}, "belong_city_id": "c312801", "lat": "46.4683538"}
{"lon": "6.8449008464813", "name": "CHEZ MOI", "id": "811072991", "slug": "chez-moi", "belong_city": "vevey", "_id": {"$oid": "5905e52e78b83736b0db715f"}, "belong_city_id": "c312801", "lat": "46.459301738863"}
{"lon": "6.83555", "name": "Villa Le Lac Le Corbusier", "id": "307506897", "slug": "villa-le-lac-le-corbusier", "belong_city": "vevey", "_id": {"$oid": "5905e52e78b83736b0db7160"}, "belong_city_id": "c312801", "lat": "46.46752"}
{"lon": "6.83958", "name": "Diva Club", "id": "454819168", "slug": "diva-club", "belong_city": "vevey", "_id": {"$oid": "5905e52e78b83736b0db7161"}, "belong_city_id": "c312801", "lat": "46.4649"}
{"lon": "6.96667", "name": "Neuchâtel, Switzerland", "id": "214166995", "slug": "neuchatel-switzerland", "belong_city": "neuenburg", "_id": {"$oid": "5905e52e78b83736b0db7162"}, "belong_city_id": "c311609", "lat": "47.0"}
{"lon": "6.9397769326041", "name": "Lac de Neuchâtel", "id": "1675707", "slug": "lac-de-neuchatel", "belong_city": "neuenburg", "_id": {"$oid": "5905e52e78b83736b0db7163"}, "belong_city_id": "c311609", "lat": "46.992815676442"}
{"lon": "6.9288314748185", "name": "Neuchatel City, Switzerland", "id": "247758815", "slug": "neuchatel-city-switzerland", "belong_city": "neuenburg", "_id": {"$oid": "5905e52e78b83736b0db7164"}, "belong_city_id": "c311609", "lat": "46.990485343892"}
{"lon": "6.93074", "name": "IHTTI School of Hotel Management", "id": "5032704", "slug": "ihtti-school-of-hotel-management", "belong_city": "neuenburg", "_id": {"$oid": "5905e52e78b83736b0db7165"}, "belong_city_id": "c311609", "lat": "46.9933"}
{"lon": "6.92912468", "name": "Neuchâtel", "id": "214838", "slug": "neuchatel", "belong_city": "neuenburg", "_id": {"$oid": "5905e52e78b83736b0db7166"}, "belong_city_id": "c311609", "lat": "46.99124305"}
{"lon": "6.9287523578746", "name": "Beau-Rivage Hotel Neuchâtel", "id": "227175309", "slug": "beau-rivage-hotel-neuchatel", "belong_city": "neuenburg", "_id": {"$oid": "5905e52e78b83736b0db7167"}, "belong_city_id": "c311609", "lat": "46.989057247202"}
{"lon": "6.96469", "name": "Hôtel Palafitte", "id": "225739113", "slug": "hotel-palafitte", "belong_city": "neuenburg", "_id": {"$oid": "5905e52e78b83736b0db7168"},