[{"cities": [{"top_location": {"lat": "40.7142", "slug": "new-york-new-york", "lon": "-74.0064", "name": "New York, New York", "id": "212988663"}, "slug": "new-york-united-states", "name": "New York", "id": "c2490299"}, {"top_location": {"lat": "40.75839", "lon": "-73.98644", "slug": "times-square-new-york-city", "name": "Times Square, New York City", "id": "3001373"}, "slug": "manhattan-united-states", "name": "Manhattan", "id": "c2703980"}, {"top_location": {"id": "204517928", "lat": "41.8369", "lon": "-87.6844", "slug": "chicago-illinois", "name": "Chicago, Illinois"}, "slug": "chicago-united-states", "name": "Chicago", "id": "c2438177"}, {"top_location": {"lat": "32.7153", "slug": "san-diego-california", "lon": "-117.156", "name": "San Diego, California", "id": "212983635"}, "slug": "san-diego-united-states", "name": "San Diego", "id": "c2421830"}, {"top_location": {"lat": "40.65", "slug": "brooklyn-new-york", "lon": "-73.95", "id": "212950988", "name": "Brooklyn, New York"}, "slug": "brooklyn-united-states", "name": "Brooklyn", "id": "c2487404"}, {"top_location": {"lat": "38.8951", "lon": "-77.0367", "slug": "washington-district-of-columbia", "name": "Washington, District of Columbia", "id": "213480180"}, "slug": "washington-united-states", "name": "Washington", "id": "c2427178"}, {"top_location": {"lat": "36.112756675516", "lon": "-115.17521287382", "slug": "bellagio-las-vegas", "name": "Bellagio Las Vegas", "id": "101735518"}, "slug": "spring-valley-united-states", "name": "Spring Valley", "id": "c2481930"}, {"top_location": {"id": "483344", "lat": "34.1013939", "lon": "-118.342741", "name": "Hollywood Walk of Fame", "slug": "hollywood-walk-of-fame"}, "slug": "west-hollywood-united-states", "name": "West Hollywood", "id": "c2422816"}, {"top_location": {"lat": "36.175", "lon": "-115.136", "id": "212901056", "name": "Las Vegas, Nevada", "slug": "las-vegas-nevada"}, "slug": "las-vegas-united-states", "name": "Las Vegas", "id": "c2481714"}, {"top_location": {"lat": "34.0522", "slug": "los-angeles-california", "lon": "-118.243", "id": "212999109", "name": "Los Angeles, California"}, "slug": "los-angeles-united-states", "name": "Los Angeles", "id": "c2420379"}, {"top_location": {"lat": "42.3578", "slug": "boston-massachusetts", "lon": "-71.0617", "id": "206698624", "name": "Boston, Massachusetts"}, "slug": "boston-united-states", "name": "Boston", "id": "c2464828"}, {"top_location": {"lat": "34.094444444444", "slug": "silver-lake-los-angeles", "lon": "-118.2675", "name": "Silver Lake, Los Angeles", "id": "214639976"}, "slug": "angelino-heights-united-states", "name": "Angelino Heights", "id": "c2417712"}, {"top_location": {"lat": "29.7629", "lon": "-95.3832", "id": "212962809", "name": "Houston, Texas", "slug": "houston-texas"}, "slug": "houston-united-states", "name": "Houston", "id": "c2527622"}, {"top_location": {"lat": "32.7833", "slug": "dallas-texas", "lon": "-96.8", "name": "Dallas, Texas", "id": "212900916"}, "slug": "dallas-united-states", "name": "Dallas", "id": "c2526493"}, {"top_location": {"lat": "40.717759194256", "slug": "williamsburg-nyc", "lon": "-73.958158025386", "id": "420077066", "name": "Williamsburg NYC"}, "slug": "long-island-city-united-states", "name": "Long Island City", "id": "c2703669"}, {"top_location": {"lat": "35.226944444444", "lon": "-80.843333333333", "id": "213141085", "name": "Charlotte, North Carolina", "slug": "charlotte-north-carolina"}, "slug": "charlotte-united-states", "name": "Charlotte", "id": "c2493367"}, {"top_location": {"lat": "40.7406616", "slug": "the-high-line", "lon": "-74.0067978", "id": "3001573", "name": "The High Line"}, "slug": "hoboken-united-states", "name": "Hoboken", "id": "c2483949"}, {"top_location": {"lat": "30.2672", "lon": "-97.7639", "slug": "austin-texas", "name": "Austin, Texas", "id": "212964995"}, "slug": "austin-united-states", "name": "Austin", "id": "c2525495"}, {"top_location": {"id": "42758", "lat": "41.93985", "lon": "-87.65846", "slug": "lincoln-hall-schubas", "name": "Lincoln Hall + Schubas"}, "slug": "lincolnwood-united-states", "name": "Lincolnwood", "id": "c2439496"}, {"top_location": {"lat": "41.947901882605", "slug": "wrigley-field", "lon": "-87.655832463987", "id": "2720841", "name": "Wrigley Field"}, "slug": "oakton-united-states", "name": "Oakton", "id": "c2439990"}, {"top_location": {"id": "1030079727081620", "lat": "40.82954", "lon": "-73.92645", "name": "Yankee Stadium", "slug": "yankee-stadium"}, "slug": "tremont-united-states", "name": "Tremont", "id": "c2492007"}, {"top_location": {"id": "107711604", "lat": "45.52", "lon": "-122.682", "slug": "portland-oregon", "name": "Portland, Oregon"}, "slug": "portland-united-states", "name": "Portland", "id": "c2505639"}, {"top_location": {"lat": "33.445995372225", "slug": "talking-stick-resort-arena", "lon": "-112.07135782626", "name": "Talking Stick Resort Arena", "id": "186741"}, "slug": "phoenix-united-states", "name": "Phoenix", "id": "c2413713"}, {"top_location": {"id": "212996854", "lat": "40.809033333333", "lon": "-73.948372222222", "slug": "harlem", "name": "Harlem"}, "slug": "edgewater-united-states", "name": "Edgewater", "id": "c2483596"}, {"top_location": {"id": "6850", "lat": "34.061316944698", "lon": "-118.3085166476", "name": "The Wiltern", "slug": "the-wiltern"}, "slug": "jefferson-park-united-states", "name": "Jefferson Park", "id": "c2419942"}, {"top_location": {"lat": "32.8472", "slug": "la-jolla-california", "lon": "-117.273", "id": "2807792", "name": "La Jolla, California"}, "slug": "la-jolla-united-states", "name": "La Jolla", "id": "c2420114"}, {"top_location": {"lat": "21.2828", "slug": "waikiki-hawaii", "lon": "-157.829", "id": "5082004", "name": "Waikiki, Hawaii"}, "slug": "moiliili-united-states", "name": "Moiliili", "id": "c2436209"}, {"top_location": {"lat": "40.7", "lon": "-73.95", "slug": "williamsburg-brooklyn", "name": "Williamsburg, Brooklyn", "id": "215631076"}, "slug": "queens-united-states", "name": "Queens", "id": "c2491013"}, {"top_location": {"id": "213245469", "lat": "36.081428815505", "lon": "-115.14731149859", "slug": "mccarran-international-airport", "name": "McCarran International Airport"}, "slug": "enterprise-united-states", "name": "Enterprise", "id": "c2481592"}, {"top_location": {"lat": "39.9418983", "slug": "bbt-pavilion", "lon": "-75.1293793", "id": "1020733562", "name": "BB&T Pavilion"}, "slug": "camden-united-states", "name": "Camden", "id": "c2483302"}, {"top_location": {"lat": "28.416302190333", "slug": "disneys-magic-kingdom", "lon": "-81.58050365654", "id": "212923412", "name": "Disneys Magic Kingdom"}, "slug": "lake-buena-vista-united-states", "name": "Lake Buena Vista", "id": "c2428698"}, {"top_location": {"lat": "30.265443437893", "lon": "-97.73864348945", "slug": "sxsw", "name": "SXSW", "id": "1026319696"}, "slug": "pershing-united-states", "name": "Pershing", "id": "c2529198"}, {"top_location": {"lat": "34.070445196457", "slug": "ucla", "lon": "-118.44494507044", "id": "476317", "name": "UCLA"}, "slug": "westwood-village-united-states", "name": "Westwood Village", "id": "c2422851"}, {"top_location": {"lat": "36.165", "slug": "nashville-tennessee", "lon": "-86.783888888889", "id": "213213692", "name": "Nashville, Tennessee"}, "slug": "nashville-united-states", "name": "Nashville", "id": "c2523484"}, {"top_location": {"id": "75374666", "lat": "25.77488547391", "lon": "-80.186367693115", "name": "Ultra Music Festival", "slug": "ultra-music-festival"}, "slug": "brickell-hammock-united-states", "name": "Brickell Hammock", "id": "c2427524"}, {"top_location": {"lat": "32.7574", "lon": "-97.3332", "id": "214001058", "name": "Fort Worth, Texas", "slug": "fort-worth-texas"}, "slug": "fort-worth-united-states", "name": "Fort Worth", "id": "c2527052"}, {"top_location": {"lat": "40.815757434146", "lon": "-73.900654054061", "slug": "south-bronx-new-york-city", "name": "South Bronx, New York City", "id": "217626380"}, "slug": "hunts-point-united-states", "name": "Hunts Point", "id": "c2489289"}, {"top_location": {"lat": "27.7429", "slug": "corpus-christi-texas", "lon": "-97.4019", "id": "215929799", "name": "Corpus Christi, Texas"}, "slug": "corpus-christi-united-states", "name": "Corpus Christi", "id": "c2526367"}, {"top_location": {"lat": "32.774552713408", "lon": "-117.07170000345", "id": "212946239", "name": "San Diego State University", "slug": "san-diego-state-university"}, "slug": "la-mesa-united-states", "name": "La Mesa", "id": "c2420119"}, {"top_location": {"lat": "25.784578657489", "lon": "-80.13125914532", "id": "212930463", "name": "South Beach, Miami", "slug": "south-beach-miami"}, "slug": "fisher-island-united-states", "name": "Fisher Island", "id": "c2428120"}, {"top_location": {"id": "651007421", "lat": "43.0522", "lon": "-87.9559", "slug": "milwaukee-wisconsin", "name": "Milwaukee, Wisconsin"}, "slug": "milwaukee-united-states", "name": "Milwaukee", "id": "c2547917"}, {"top_location": {"lat": "41.928333333333", "slug": "logan-square-chicago", "lon": "-87.706666666667", "id": "266481384", "name": "Logan Square, Chicago"}, "slug": "oak-park-united-states", "name": "Oak Park", "id": "c2439978"}, {"top_location": {"lat": "41.4823", "lon": "-81.6697", "id": "217046368", "name": "Cleveland, Ohio", "slug": "cleveland-ohio"}, "slug": "cleveland-united-states", "name": "Cleveland", "id": "c2498857"}, {"top_location": {"lat": "29.739195473598", "lon": "-95.463434167984", "slug": "the-galleria", "name": "The Galleria", "id": "1202288"}, "slug": "bellaire-united-states", "name": "Bellaire", "id": "c2525624"}, {"top_location": {"lat": "40.4414", "lon": "-79.9773", "id": "213470852", "name": "Pittsburgh, Pennsylvania", "slug": "pittsburgh-pennsylvania"}, "slug": "pittsburgh-united-states", "name": "Pittsburgh", "id": "c2512017"}, {"top_location": {"id": "222478787", "lat": "33.5647", "lon": "-101.878", "name": "Lubbock, Texas", "slug": "lubbock-texas"}, "slug": "lubbock-united-states", "name": "Lubbock", "id": "c2528280"}, {"top_location": {"id": "213420290", "lat": "34.0078", "lon": "-118.401", "name": "Culver City, California", "slug": "culver-city-california"}, "slug": "culver-city-united-states", "name": "Culver City", "id": "c2418739"}, {"top_location": {"lat": "33.812243316489", "lon": "-117.91887760162", "id": "212893092", "name": "Disneyland", "slug": "disneyland"}, "slug": "south-anaheim-united-states", "name": "South Anaheim", "id": "c2422161"}], "country_id": "US", "slug": "United States", "name": "United States"}, {"cities": [{"slug": "medan-indonesia", "top_location": {"lat": "3.58333", "lon": "98.6667", "slug": "medan-indonesia", "name": "Medan, Indonesia", "id": "219087144"}, "id": "c975253", "name": "Medan"}, {"slug": "daoehpoeri-indonesia", "top_location": {"lat": "-8.65", "slug": "denpasar-bali-indonesia", "lon": "115.217", "id": "213114782", "name": "Denpasar, Bali, Indonesia"}, "id": "c957633", "name": "Daoehpoeri"}, {"slug": "kuta-indonesia", "top_location": {"lat": "-8.6782059685091", "slug": "potato-head-beach-club-bali", "lon": "115.14955043793", "id": "265275228", "name": "Potato Head Beach Club Bali"}, "id": "c969889", "name": "Kuta"}, {"slug": "surakarta-indonesia", "top_location": {"lat": "-7.56667", "slug": "surakarta", "lon": "110.817", "id": "228204735", "name": "Surakarta"}, "id": "c992961", "name": "Surakarta"}, {"slug": "semarang-indonesia", "top_location": {"lat": "-6.96667", "slug": "semarang-indonesia", "lon": "110.417", "id": "217510365", "name": "Semarang, Indonesia"}, "id": "c989399", "name": "Semarang"}, {"slug": "sunggal-indonesia", "top_location": {"id": "1009715736", "lat": "3.5758933281017", "lon": "98.625898361206", "slug": "ringroad-citywalks-xxi", "name": "Ringroad CityWalks XXI"}, "id": "c992910", "name": "Sunggal"}, {"slug": "jodoh-indonesia", "top_location": {"lat": "1.1329617306776", "lon": "104.01039266614", "id": "62965817", "name": "BCS MALL", "slug": "bcs-mall"}, "id": "c963608", "name": "Jodoh"}, {"slug": "padang-indonesia", "top_location": {"lat": "-0.95", "slug": "padang-indonesia", "lon": "100.35", "name": "Padang, Indonesia", "id": "249585471"}, "id": "c979675", "name": "Padang"}, {"slug": "toegoewetan-indonesia", "top_location": {"lat": "-7.782877898827", "slug": "jogja", "lon": "110.36710739136", "id": "236261751", "name": "Jogja"}, "id": "c999348", "name": "Toegoewetan"}, {"slug": "parit-indonesia", "top_location": {"lat": "0.46467442181459", "slug": "bandara-internasional-sultan-sarif-kasim-ii-pekanbaru-riau", "lon": "101.44779005273", "id": "237085445", "name": "Bandara Internasional Sultan Sarif Kasim II Pekanbaru Riau"}, "id": "c981672", "name": "Parit"}, {"slug": "purwokerto-indonesia", "top_location": {"lat": "-7.41667", "slug": "purwokerto-jawa-tengah-indonesia", "lon": "109.233", "id": "238021616", "name": "Purwokerto, Jawa Tengah, Indonesia"}, "id": "c985687", "name": "Purwokerto"}, {"slug": "kediri-indonesia", "top_location": {"id": "96280676", "lat": "-7.8166111111111", "lon": "112.01191666667", "name": "Kediri", "slug": "kediri"}, "id": "c966981", "name": "Kediri"}, {"slug": "toeban-indonesia", "top_location": {"lat": "-8.7441740876372", "slug": "bali-international-airport-denpasar-bali-indonesia", "lon": "115.16728124827", "id": "260554342", "name": "Bali International Airport, Denpasar, Bali, indonesia"}, "id": "c999321", "name": "Toeban"}, {"slug": "batam-indonesia", "top_location": {"lat": "1.08333", "lon": "104.033", "slug": "batam-riau-indonesia", "name": "Batam, Riau, Indonesia", "id": "216034109"}, "id": "c2687160", "name": "Batam"}, {"slug": "pematangsiantar-indonesia", "top_location": {"lat": "2.95", "slug": "pematangsiantar", "lon": "99.05", "name": "Pematangsiantar", "id": "246533207"}, "id": "c983072", "name": "Pematangsiantar"}, {"slug": "yogyakarta-city-indonesia", "top_location": {"lat": "-7.796608", "slug": "kota-yogyakarata", "lon": "110.381744", "id": "265015112", "name": "Kota Yogyakarata"}, "id": "c1002881", "name": "Yogyakarta City"}, {"slug": "benuaanyar-indonesia", "top_location": {"lat": "-3.3227814633279", "slug": "duta-mall-banjarmasin-kalimantan-selatan", "lon": "114.60266856309", "id": "306365414", "name": "Duta Mall, Banjarmasin, Kalimantan Selatan"}, "id": "c951801", "name": "Benuaanyar"}, {"slug": "delitua-indonesia", "top_location": {"lat": "3.5", "lon": "98.6833", "slug": "delitua-sumatera-utara-indonesia", "name": "Delitua, Sumatera Utara, Indonesia", "id": "277355031"}, "id": "c957846", "name": "Delitua"}, {"slug": "krobokon-indonesia", "top_location": {"lat": "-6.9048632778249", "slug": "jonas-photo-studio", "lon": "107.6168744669", "id": "36440364", "name": "Jonas Photo Studio"}, "id": "c969471", "name": "Krobokon"}, {"slug": "telanaipura-indonesia", "top_location": {"lat": "-1.6210454498118", "slug": "jambi-town-square", "lon": "103.58697583517", "name": "Jambi Town Square", "id": "243695814"}, "id": "c995654", "name": "Telanaipura"}, {"slug": "kampung-gunung-malang-indonesia", "top_location": {"lat": "-1.2387784677804", "lon": "116.87621405664", "id": "1023653198", "name": "Transmart Carrefour Daun Village Balikpapan", "slug": "transmart-carrefour-daun-village-balikpapan"}, "id": "c965322", "name": "Kampung Gunung Malang"}, {"slug": "bualu-indonesia", "top_location": {"lat": "-8.84450998722", "slug": "pandawa-beach", "lon": "115.1861122323", "name": "Pandawa Beach", "id": "213043370"}, "id": "c953918", "name": "Bualu"}, {"slug": "kedaton-indonesia", "top_location": {"id": "264715588", "lat": "-5.38333", "lon": "105.25", "name": "Kedaton, Lampung, Indonesia", "slug": "kedaton-lampung-indonesia"}, "id": "c966921", "name": "Kedaton"}, {"slug": "kamparganya-indonesia", "top_location": {"id": "215422385", "lat": "-6.5964865950838", "lon": "106.80364377696", "slug": "kebun-raya-bogor-west-java", "name": "Kebun Raya Bogor, West Java"}, "id": "c965010", "name": "Kamparganya"}, {"slug": "pulogadung-lor-indonesia", "top_location": {"lat": "-6.1600965", "lon": "106.90790675", "slug": "mall-kelapa-gading-mkg", "name": "Mall Kelapa Gading (MKG)", "id": "238631886"}, "id": "c985393", "name": "Pulogadung-lor"}, {"slug": "tandjungpinang-indonesia", "top_location": {"id": "236121465", "lat": "0.916667", "lon": "104.45", "name": "Tanjungpinang", "slug": "tanjungpinang"}, "id": "c994483", "name": "Tandjungpinang"}, {"slug": "mariso-indonesia", "top_location": {"lat": "-5.1607230769231", "lon": "119.39396923077", "slug": "trans-studio-transmall-makassar", "name": "TRANS STUDIO - TransMall Makassar", "id": "212995269"}, "id": "c974761", "name": "Mariso"}, {"slug": "mamajangdalam-indonesia", "top_location": {"id": "501867654", "lat": "-5.157581795734", "lon": "119.44653511047", "slug": "mall-panakkukang-makassar", "name": "Mall Panakkukang Makassar"}, "id": "c973982", "name": "Mamajangdalam"}, {"slug": "pulo-besar-indonesia", "top_location": {"id": "221441609", "lat": "-6.1526881467416", "lon": "106.89318177657", "slug": "mall-of-indonesia-kelapa-gading-jakarta-utara", "name": "Mall Of Indonesia ( Kelapa Gading , Jakarta Utara )"}, "id": "c985376", "name": "Pulo-besar"}, {"slug": "mataram-indonesia", "top_location": {"lat": "-8.58333", "slug": "mataram", "lon": "116.117", "id": "229968268", "name": "Mataram"}, "id": "c975058", "name": "Mataram"}, {"slug": "serang-indonesia", "top_location": {"lat": "-6.11278", "slug": "serang-indonesia", "lon": "106.148", "name": "Serang, Indonesia", "id": "286080753"}, "id": "c989836", "name": "Serang"}, {"slug": "kudus-indonesia", "top_location": {"lat": "-6.8", "lon": "110.833", "id": "234797873", "name": "Kudus", "slug": "kudus"}, "id": "c969672", "name": "Kudus"}, {"slug": "kubang-indonesia", "top_location": {"lat": "0.47193241525", "lon": "101.3809406595", "slug": "universitas-riau-unri", "name": "Universitas Riau (UNRI)", "id": "563909405"}, "id": "c969634", "name": "Kubang"}, {"slug": "pekalongan-indonesia", "top_location": {"lat": "-6.8786248286583", "lon": "109.67481851578", "id": "808078039", "name": "Pekalongan Kota Batik", "slug": "pekalongan-kota-batik"}, "id": "c982866", "name": "Pekalongan"}, {"slug": "sempidi-indonesia", "top_location": {"lat": "-8.6035208273202", "lon": "115.17882599615", "slug": "puspem-kabbadung-mangupraja-mandala", "name": "Puspem Kab.Badung Mangupraja Mandala", "id": "224594202"}, "id": "c989526", "name": "Sempidi"}, {"slug": "jakarta-indonesia", "top_location": {"id": "214427142", "lat": "-6.2173", "lon": "106.839", "slug": "jakarta-indonesia", "name": "Jakarta, Indonesia"}, "id": "c962899", "name": "Jakarta"}, {"slug": "katangka-indonesia", "top_location": {"lat": "-5.1678750584934", "lon": "119.42851511844", "slug": "four-points-by-sheraton-makassar", "name": "Four Points by Sheraton Makassar", "id": "1013943120"}, "id": "c966415", "name": "Katangka"}, {"slug": "bengkoeloe-indonesia", "top_location": {"lat": "-3.8120561070715", "lon": "102.26765575658", "slug": "pantai-panjang", "name": "Pantai Panjang", "id": "655609114"}, "id": "c951702", "name": "Bengkoeloe"}, {"slug": "bonorejo-indonesia", "top_location": {"lat": "-7.5554803546185", "slug": "stadion-gelora-manahan-solo", "lon": "110.80530405379", "name": "Stadion Gelora Manahan Solo", "id": "235441220"}, "id": "c953599", "name": "Bonorejo"}, {"slug": "pekayonbulak-indonesia", "top_location": {"id": "249736450", "lat": "-6.248393285057", "lon": "106.9907230849", "name": "Mal Metropolitan Bekasi", "slug": "mal-metropolitan-bekasi"}, "id": "c982892", "name": "Pekayonbulak"}, {"slug": "talang-kelapa-indonesia", "top_location": {"lat": "-2.9316464539007", "slug": "palembang-sumatra-selatan", "lon": "104.71572102837", "id": "482435466", "name": "Palembang, Sumatra Selatan"}, "id": "c993453", "name": "Talang Kelapa"}, {"slug": "tasikmalaya-indonesia", "top_location": {"lat": "-7.3333333333333", "slug": "tasikmalaya", "lon": "108.2", "name": "Tasikmalaya", "id": "109599452"}, "id": "c995230", "name": "Tasikmalaya"}, {"slug": "jayapura-indonesia", "top_location": {"id": "238283393", "lat": "-2.53333", "lon": "140.7", "slug": "jayapura-indonesia", "name": "Jayapura, Indonesia"}, "id": "c963359", "name": "Jayapura"}, {"slug": "poerwosari-indonesia", "top_location": {"lat": "-7.5580280172115", "slug": "universitas-muhammadiyah-surakarta", "lon": "110.76891434942", "id": "942424795", "name": "Universitas Muhammadiyah Surakarta"}, "id": "c984413", "name": "Poerwosari"}, {"slug": "chilegon-indonesia", "top_location": {"lat": "-6.01556", "slug": "cilegon", "lon": "106.053", "name": "Cilegon", "id": "13771493"}, "id": "c955119", "name": "Chilegon"}, {"slug": "cirebon-indonesia", "top_location": {"id": "6673724", "lat": "-6.7167", "lon": "108.567", "name": "Cirebon", "slug": "cirebon"}, "id": "c956891", "name": "Cirebon"}, {"slug": "martapura-indonesia", "top_location": {"id": "976036288", "lat": "-3.46047758", "lon": "114.84870336", "name": "Banjarbaru, Kalimantan Selatan", "slug": "banjarbaru-kalimantan-selatan"}, "id": "c974822", "name": "Martapura"}, {"slug": "merawang-indonesia", "top_location": {"lat": "-2.1289097136038", "slug": "pangkal-pinang-bangka-belitung", "lon": "106.1018624105", "id": "657045005", "name": "Pangkal Pinang - Bangka Belitung."}, "id": "c975639", "name": "Merawang"}], "country_id": "ID", "slug": "Indonesia", "name": "Indonesia"}]